[{"id": "p2cCK4Vu-3L-skOMd93VVg", "alias": "jj-thai-street-food-chicago", "name": "JJ Thai Street Food", "image_url": "https://s3-media4.fl.yelpcdn.com/bphoto/q8CXoPs0UahU0q1E2GryWQ/o.jpg", "is_closed": false, "url": "https://www.yelp.com/biz/jj-thai-street-food-chicago?adjust_creative=7CK4ybIEl13vojI6byrxTw&utm_campaign=yelp_api_v3&utm_medium=api_v3_business_search&utm_source=7CK4ybIEl13vojI6byrxTw", "review_count": 399, "categories": [{"alias": "thai", "title": "Thai"}], "rating": 4.5, "coordinates": {"latitude": 41.8958251, "longitude": -87.6703764}, "transactions": ["delivery", "pickup"], "price": "$$", "location": {"address1": "1715 W Chicago Ave", "address2": "", "address3": "", "city": "Chicago", "zip_code": "60622", "country": "US", "state": "IL", "display_address": ["1715 W Chicago Ave", "Chicago, IL 60622"]}, "phone": "+13129294435", "display_phone": "(312) 929-4435", "distance": 1612.454740985285}, {"id": "kuJLjqq0m_tWfkgkMV6WrA", "alias": "sweet-rice-asian-kitchen-chicago", "name": "Sweet Rice Asian Kitchen", "image_url": "https://s3-media3.fl.yelpcdn.com/bphoto/-YeUNPTCwcLBO16AfueTzA/o.jpg", "is_closed": false, "url": "https://www.yelp.com/biz/sweet-rice-asian-kitchen-chicago?adjust_creative=7CK4ybIEl13vojI6byrxTw&utm_campaign=yelp_api_v3&utm_medium=api_v3_business_search&utm_source=7CK4ybIEl13vojI6byrxTw", "review_count": 28, "categories": [{"alias": "thai", "title": "Thai"}, {"alias": "panasian", "title": "Pan Asian"}, {"alias": "desserts", "title": "Desserts"}], "rating": 5.0, "coordinates": {"latitude": 41.915980361557416, "longitude": -87.68754992634057}, "transactions": ["pickup", "delivery"], "price": "$$", "location": {"address1": "1904 N Western Ave", "address2": "", "address3": null, "city": "Chicago", "zip_code": "60647", "country": "US", "state": "IL", "display_address": ["1904 N Western Ave", "Chicago, IL 60647"]}, "phone": "+17736612743", "display_phone": "(773) 661-2743", "distance": 1383.1599731088772}, {"id": "bg20bWGO5cD7A873sEb9kw", "alias": "silom-12-chicago", "name": "Silom 12", "image_url": "https://s3-media4.fl.yelpcdn.com/bphoto/6-ueD1O4tgn0uhKRBbmbmA/o.jpg", "is_closed": false, "url": "https://www.yelp.com/biz/silom-12-chicago?adjust_creative=7CK4ybIEl13vojI6byrxTw&utm_campaign=yelp_api_v3&utm_medium=api_v3_business_search&utm_source=7CK4ybIEl13vojI6byrxTw", "review_count": 474, "categories": [{"alias": "thai", "title": "Thai"}], "rating": 4.0, "coordinates": {"latitude": 41.91487, "longitude": -87.68488}, "transactions": ["pickup", "delivery"], "price": "$$", "location": {"address1": "1846-48 N Milwaukee Ave", "address2": "Ste 48", "address3": "", "city": "Chicago", "zip_code": "60647", "country": "US", "state": "IL", "display_address": ["1846-48 N Milwaukee Ave", "Ste 48", "Chicago, IL 60647"]}, "phone": "+17734891212", "display_phone": "(773) 489-1212", "distance": 1272.1659743929706}, {"id": "c-mWMo-TcHiVrr6_OenOxg", "alias": "noble-thai-chicago", "name": "Noble Thai", "image_url": "https://s3-media4.fl.yelpcdn.com/bphoto/_e64FPwvPmtM-NS0JZJahg/o.jpg", "is_closed": false, "url": "https://www.yelp.com/biz/noble-thai-chicago?adjust_creative=7CK4ybIEl13vojI6byrxTw&utm_campaign=yelp_api_v3&utm_medium=api_v3_business_search&utm_source=7CK4ybIEl13vojI6byrxTw", "review_count": 53, "categories": [{"alias": "thai", "title": "Thai"}, {"alias": "noodles", "title": "Noodles"}], "rating": 4.5, "coordinates": {"latitude": 41.8959, "longitude": -87.66216}, "transactions": ["pickup", "delivery"], "location": {"address1": "1371 W Chicago Ave", "address2": "", "address3": null, "city": "Chicago", "zip_code": "60642", "country": "US", "state": "IL", "display_address": ["1371 W Chicago Ave", "Chicago, IL 60642"]}, "phone": "+13128461867", "display_phone": "(312) 846-1867", "distance": 2209.580396079124}, {"id": "VH6O_2qSPkTme_s-1Y1nXQ", "alias": "three-wheels-noodle-chicago", "name": "Three Wheels Noodle", "image_url": "https://s3-media2.fl.yelpcdn.com/bphoto/WJC6cheklenofUmD1Uh_aw/o.jpg", "is_closed": false, "url": "https://www.yelp.com/biz/three-wheels-noodle-chicago?adjust_creative=7CK4ybIEl13vojI6byrxTw&utm_campaign=yelp_api_v3&utm_medium=api_v3_business_search&utm_source=7CK4ybIEl13vojI6byrxTw", "review_count": 139, "categories": [{"alias": "thai", "title": "Thai"}], "rating": 4.5, "coordinates": {"latitude": 41.92396, "longitude": -87.69839}, "transactions": ["pickup", "delivery"], "price": "$$", "location": {"address1": "2339 N Milwaukee Ave", "address2": "", "address3": null, "city": "Chicago", "zip_code": "60647", "country": "US", "state": "IL", "display_address": ["2339 N Milwaukee Ave", "Chicago, IL 60647"]}, "phone": "+17733608288", "display_phone": "(773) 360-8288", "distance": 2457.241713166089}, {"id": "3O9dlxXNm-ztCnYczsDTAw", "alias": "thai-basil-chicago", "name": "Thai Basil", "image_url": "https://s3-media3.fl.yelpcdn.com/bphoto/2Z8SC7puEyxajeZ_jSMung/o.jpg", "is_closed": false, "url": "https://www.yelp.com/biz/thai-basil-chicago?adjust_creative=7CK4ybIEl13vojI6byrxTw&utm_campaign=yelp_api_v3&utm_medium=api_v3_business_search&utm_source=7CK4ybIEl13vojI6byrxTw", "review_count": 56, "categories": [{"alias": "vietnamese", "title": "Vietnamese"}, {"alias": "thai", "title": "Thai"}, {"alias": "desserts", "title": "Desserts"}], "rating": 4.0, "coordinates": {"latitude": 41.8987659026522, "longitude": -87.6767785102129}, "transactions": ["pickup", "delivery"], "location": {"address1": "937 N Damen Ave", "address2": "", "address3": null, "city": "Chicago", "zip_code": "60622", "country": "US", "state": "IL", "display_address": ["937 N Damen Ave", "Chicago, IL 60622"]}, "phone": "+17736665996", "display_phone": "(773) 666-5996", "distance": 989.8351776586601}, {"id": "yfG_KkZNW0Ku5VzgNe5AdQ", "alias": "opart-thai-house-chicago-2", "name": "Opart Thai House", "image_url": "https://s3-media1.fl.yelpcdn.com/bphoto/WgrPpGfAJrmeaeFxMTuUew/o.jpg", "is_closed": false, "url": "https://www.yelp.com/biz/opart-thai-house-chicago-2?adjust_creative=7CK4ybIEl13vojI6byrxTw&utm_campaign=yelp_api_v3&utm_medium=api_v3_business_search&utm_source=7CK4ybIEl13vojI6byrxTw", "review_count": 368, "categories": [{"alias": "thai", "title": "Thai"}], "rating": 4.0, "coordinates": {"latitude": 41.89621, "longitude": -87.66664}, "transactions": ["delivery", "pickup"], "price": "$$", "location": {"address1": "1546 W Chicago Ave", "address2": "", "address3": "", "city": "Chicago", "zip_code": "60642", "country": "US", "state": "IL", "display_address": ["1546 W Chicago Ave", "Chicago, IL 60642"]}, "phone": "+13129880986", "display_phone": "(312) 988-0986", "distance": 1862.2084808144148}, {"id": "BbZJX22cYLRlK3vfGPhddg", "alias": "thai-lagoon-chicago", "name": "Thai Lagoon", "image_url": "https://s3-media3.fl.yelpcdn.com/bphoto/YqSW8is_TEH1QLTvc8hnPg/o.jpg", "is_closed": false, "url": "https://www.yelp.com/biz/thai-lagoon-chicago?adjust_creative=7CK4ybIEl13vojI6byrxTw&utm_campaign=yelp_api_v3&utm_medium=api_v3_business_search&utm_source=7CK4ybIEl13vojI6byrxTw", "review_count": 439, "categories": [{"alias": "thai", "title": "Thai"}], "rating": 3.5, "coordinates": {"latitude": 41.9106, "longitude": -87.68575}, "transactions": ["pickup", "delivery"], "price": "$$", "location": {"address1": "2322 W North Ave", "address2": "", "address3": "", "city": "Chicago", "zip_code": "60647", "country": "US", "state": "IL", "display_address": ["2322 W North Ave", "Chicago, IL 60647"]}, "phone": "+17734895747", "display_phone": "(773) 489-5747", "distance": 781.351763235383}, {"id": "1PMp9MqVvqmZ5n3kN_TO2w", "alias": "krung-thep-thai-cuisine-chicago", "name": "Krung Thep Thai Cuisine", "image_url": "https://s3-media1.fl.yelpcdn.com/bphoto/GCFR_g38NNZCL8kRc9XVpw/o.jpg", "is_closed": false, "url": "https://www.yelp.com/biz/krung-thep-thai-cuisine-chicago?adjust_creative=7CK4ybIEl13vojI6byrxTw&utm_campaign=yelp_api_v3&utm_medium=api_v3_business_search&utm_source=7CK4ybIEl13vojI6byrxTw", "review_count": 300, "categories": [{"alias": "thai", "title": "Thai"}, {"alias": "asianfusion", "title": "Asian Fusion"}, {"alias": "salad", "title": "Salad"}], "rating": 4.5, "coordinates": {"latitude": 41.9401536, "longitude": -87.6490613}, "transactions": ["pickup", "delivery"], "price": "$$", "location": {"address1": "3205 N Halsted St", "address2": "", "address3": "", "city": "Chicago", "zip_code": "60657", "country": "US", "state": "IL", "display_address": ["3205 N Halsted St", "Chicago, IL 60657"]}, "phone": "+17732962178", "display_phone": "(773) 296-2178", "distance": 5137.610905647347}, {"id": "klqT1jmLo8HToWMjnyKh8g", "alias": "eathai-chicago", "name": "EaThai", "image_url": "https://s3-media3.fl.yelpcdn.com/bphoto/X9IPoeu6YH3bul_qANcBBA/o.jpg", "is_closed": false, "url": "https://www.yelp.com/biz/eathai-chicago?adjust_creative=7CK4ybIEl13vojI6byrxTw&utm_campaign=yelp_api_v3&utm_medium=api_v3_business_search&utm_source=7CK4ybIEl13vojI6byrxTw", "review_count": 61, "categories": [{"alias": "thai", "title": "Thai"}, {"alias": "soup", "title": "Soup"}, {"alias": "chicken_wings", "title": "Chicken Wings"}], "rating": 4.5, "coordinates": {"latitude": 41.93398874312556, "longitude": -87.7073628321292}, "transactions": ["pickup", "delivery"], "location": {"address1": "2901 N Kedzie Ave", "address2": null, "address3": "", "city": "Chicago", "zip_code": "60618", "country": "US", "state": "IL", "display_address": ["2901 N Kedzie Ave", "Chicago, IL 60618"]}, "phone": "+17739617612", "display_phone": "(773) 961-7612", "distance": 3785.6666915654564}, {"id": "T1dv09OKSxmuitPVLXD5Aw", "alias": "serai-chicago", "name": "Serai", "image_url": "https://s3-media1.fl.yelpcdn.com/bphoto/gpf3Bs4El0FNxiZ6bBu4Mg/o.jpg", "is_closed": false, "url": "https://www.yelp.com/biz/serai-chicago?adjust_creative=7CK4ybIEl13vojI6byrxTw&utm_campaign=yelp_api_v3&utm_medium=api_v3_business_search&utm_source=7CK4ybIEl13vojI6byrxTw", "review_count": 654, "categories": [{"alias": "malaysian", "title": "Malaysian"}, {"alias": "asianfusion", "title": "Asian Fusion"}, {"alias": "desserts", "title": "Desserts"}], "rating": 4.0, "coordinates": {"latitude": 41.9206132, "longitude": -87.6933394}, "transactions": ["pickup", "delivery", "restaurant_reservation"], "price": "$$", "location": {"address1": "2169 N Milwaukee Ave", "address2": null, "address3": "", "city": "Chicago", "zip_code": "60647", "country": "US", "state": "IL", "display_address": ["2169 N Milwaukee Ave", "Chicago, IL 60647"]}, "phone": "+18722068368", "display_phone": "(872) 206-8368", "distance": 1986.4251474693708}, {"id": "iv3fycjrqxUgd1BE8qainw", "alias": "dena-kitchen-chicago", "name": "Dena Kitchen", "image_url": "https://s3-media1.fl.yelpcdn.com/bphoto/SSO751k0u1eqLaS61SPP4Q/o.jpg", "is_closed": false, "url": "https://www.yelp.com/biz/dena-kitchen-chicago?adjust_creative=7CK4ybIEl13vojI6byrxTw&utm_campaign=yelp_api_v3&utm_medium=api_v3_business_search&utm_source=7CK4ybIEl13vojI6byrxTw", "review_count": 173, "categories": [{"alias": "thai", "title": "Thai"}], "rating": 4.0, "coordinates": {"latitude": 41.92497, "longitude": -87.71115}, "transactions": ["pickup", "delivery"], "price": "$", "location": {"address1": "3306 W Fullerton Ave", "address2": null, "address3": "", "city": "Chicago", "zip_code": "60647", "country": "US", "state": "IL", "display_address": ["3306 W Fullerton Ave", "Chicago, IL 60647"]}, "phone": "+17736973504", "display_phone": "(773) 697-3504", "distance": 3111.3750845355294}, {"id": "YnBwTgZOHz3J6JSy5aCxiA", "alias": "zoku-sushi-chicago-3", "name": "Zoku Sushi", "image_url": "https://s3-media2.fl.yelpcdn.com/bphoto/9_CZDooJT93_bI7WS1dDLA/o.jpg", "is_closed": false, "url": "https://www.yelp.com/biz/zoku-sushi-chicago-3?adjust_creative=7CK4ybIEl13vojI6byrxTw&utm_campaign=yelp_api_v3&utm_medium=api_v3_business_search&utm_source=7CK4ybIEl13vojI6byrxTw", "review_count": 203, "categories": [{"alias": "japanese", "title": "Japanese"}, {"alias": "thai", "title": "Thai"}, {"alias": "sushi", "title": "Sushi Bars"}], "rating": 4.0, "coordinates": {"latitude": 41.91072438763758, "longitude": -87.7069782647238}, "transactions": ["pickup", "delivery"], "price": "$$", "location": {"address1": "1616 N Kedzie Ave", "address2": null, "address3": "", "city": "Chicago", "zip_code": "60647", "country": "US", "state": "IL", "display_address": ["1616 N Kedzie Ave", "Chicago, IL 60647"]}, "phone": "+17732271616", "display_phone": "(773) 227-1616", "distance": 1845.8289704064873}, {"id": "HSfjGxJ_XcA03eQJ9uniYw", "alias": "trike-chicago-3", "name": "Trike", "image_url": "https://s3-media2.fl.yelpcdn.com/bphoto/m_0mmmTOXWb571GB1BX7jA/o.jpg", "is_closed": false, "url": "https://www.yelp.com/biz/trike-chicago-3?adjust_creative=7CK4ybIEl13vojI6byrxTw&utm_campaign=yelp_api_v3&utm_medium=api_v3_business_search&utm_source=7CK4ybIEl13vojI6byrxTw", "review_count": 231, "categories": [{"alias": "asianfusion", "title": "Asian Fusion"}, {"alias": "thai", "title": "Thai"}, {"alias": "sushi", "title": "Sushi Bars"}], "rating": 4.0, "coordinates": {"latitude": 41.9276161193848, "longitude": -87.7045593261719}, "transactions": ["pickup", "delivery"], "price": "$$", "location": {"address1": "2539 N Milwaukee Ave", "address2": "", "address3": "", "city": "Chicago", "zip_code": "60647", "country": "US", "state": "IL", "display_address": ["2539 N Milwaukee Ave", "Chicago, IL 60647"]}, "phone": "+17736974264", "display_phone": "(773) 697-4264", "distance": 3049.973012530925}, {"id": "bCgWDGyD3G2ULKMB6bQa_w", "alias": "butterfly-sushi-bar-and-thai-cuisine-chicago-2", "name": "Butterfly Sushi Bar & Thai Cuisine", "image_url": "https://s3-media2.fl.yelpcdn.com/bphoto/hMjLCuMeVjhVHX4MZVS06w/o.jpg", "is_closed": false, "url": "https://www.yelp.com/biz/butterfly-sushi-bar-and-thai-cuisine-chicago-2?adjust_creative=7CK4ybIEl13vojI6byrxTw&utm_campaign=yelp_api_v3&utm_medium=api_v3_business_search&utm_source=7CK4ybIEl13vojI6byrxTw", "review_count": 1119, "categories": [{"alias": "thai", "title": "Thai"}, {"alias": "sushi", "title": "Sushi Bars"}], "rating": 4.0, "coordinates": {"latitude": 41.89091, "longitude": -87.6562}, "transactions": ["delivery", "pickup"], "price": "$$", "location": {"address1": "1139 W Grand Ave", "address2": null, "address3": "", "city": "Chicago", "zip_code": "60642", "country": "US", "state": "IL", "display_address": ["1139 W Grand Ave", "Chicago, IL 60642"]}, "phone": "+13125635555", "display_phone": "(312) 563-5555", "distance": 2900.7170738890063}, {"id": "JS1bVJRmADc6SOB-iZ5rhQ", "alias": "andys-thai-kitchen-chicago-2", "name": "Andy's Thai Kitchen", "image_url": "https://s3-media3.fl.yelpcdn.com/bphoto/QoVcSOCkS8CCfDvmBXU5HQ/o.jpg", "is_closed": false, "url": "https://www.yelp.com/biz/andys-thai-kitchen-chicago-2?adjust_creative=7CK4ybIEl13vojI6byrxTw&utm_campaign=yelp_api_v3&utm_medium=api_v3_business_search&utm_source=7CK4ybIEl13vojI6byrxTw", "review_count": 457, "categories": [{"alias": "thai", "title": "Thai"}, {"alias": "vegan", "title": "Vegan"}, {"alias": "gluten_free", "title": "Gluten-Free"}], "rating": 3.5, "coordinates": {"latitude": 41.93281, "longitude": -87.653411}, "transactions": ["pickup", "delivery"], "price": "$$", "location": {"address1": "950 W Diversey Pkwy", "address2": "", "address3": null, "city": "Chicago", "zip_code": "60614", "country": "US", "state": "IL", "display_address": ["950 W Diversey Pkwy", "Chicago, IL 60614"]}, "phone": "+17735497821", "display_phone": "(773) 549-7821", "distance": 4269.438114726973}, {"id": "iFDf1pkfWbKeXt3XXehXrA", "alias": "kin-sushi-and-thai-cuisine-chicago", "name": "Kin Sushi & Thai Cuisine", "image_url": "https://s3-media3.fl.yelpcdn.com/bphoto/QepmZvF8op7aikgI8mskKg/o.jpg", "is_closed": false, "url": "https://www.yelp.com/biz/kin-sushi-and-thai-cuisine-chicago?adjust_creative=7CK4ybIEl13vojI6byrxTw&utm_campaign=yelp_api_v3&utm_medium=api_v3_business_search&utm_source=7CK4ybIEl13vojI6byrxTw", "review_count": 284, "categories": [{"alias": "thai", "title": "Thai"}, {"alias": "sushi", "title": "Sushi Bars"}], "rating": 4.0, "coordinates": {"latitude": 41.90213, "longitude": -87.6651}, "transactions": ["pickup", "delivery"], "price": "$$", "location": {"address1": "1132 N Milwaukee Ave", "address2": "", "address3": "", "city": "Chicago", "zip_code": "60642", "country": "US", "state": "IL", "display_address": ["1132 N Milwaukee Ave", "Chicago, IL 60642"]}, "phone": "+17737722722", "display_phone": "(773) 772-2722", "distance": 1810.3057883748759}, {"id": "UvsLgDwabDSrynWUN71Dow", "alias": "golden-thai-chicago", "name": "Golden Thai", "image_url": "https://s3-media4.fl.yelpcdn.com/bphoto/fTkVTFsbNppwdpQMMe97bQ/o.jpg", "is_closed": false, "url": "https://www.yelp.com/biz/golden-thai-chicago?adjust_creative=7CK4ybIEl13vojI6byrxTw&utm_campaign=yelp_api_v3&utm_medium=api_v3_business_search&utm_source=7CK4ybIEl13vojI6byrxTw", "review_count": 235, "categories": [{"alias": "thai", "title": "Thai"}], "rating": 4.0, "coordinates": {"latitude": 41.8693003, "longitude": -87.6642857}, "transactions": ["delivery", "pickup"], "price": "$", "location": {"address1": "1509 W Taylor St", "address2": "", "address3": "", "city": "Chicago", "zip_code": "60610", "country": "US", "state": "IL", "display_address": ["1509 W Taylor St", "Chicago, IL 60610"]}, "phone": "+13127330760", "display_phone": "(312) 733-0760", "distance": 4242.45230421671}, {"id": "2WIiDiLN5HvZ6ssFBK9CVg", "alias": "kinnaree-thai-kitchen-chicago", "name": "Kinnaree Thai Kitchen", "image_url": "https://s3-media3.fl.yelpcdn.com/bphoto/LzXw3NR_3l32v-vS-8jfaQ/o.jpg", "is_closed": false, "url": "https://www.yelp.com/biz/kinnaree-thai-kitchen-chicago?adjust_creative=7CK4ybIEl13vojI6byrxTw&utm_campaign=yelp_api_v3&utm_medium=api_v3_business_search&utm_source=7CK4ybIEl13vojI6byrxTw", "review_count": 119, "categories": [{"alias": "thai", "title": "Thai"}], "rating": 4.0, "coordinates": {"latitude": 41.92566, "longitude": -87.66782}, "transactions": ["pickup", "delivery"], "price": "$$", "location": {"address1": "2415 N Ashland Ave", "address2": null, "address3": "", "city": "Chicago", "zip_code": "60614", "country": "US", "state": "IL", "display_address": ["2415 N Ashland Ave", "Chicago, IL 60614"]}, "phone": "+17736665455", "display_phone": "(773) 666-5455", "distance": 2919.07628120357}, {"id": "xNbjv2XaKt0ZATscozZsAg", "alias": "joys-noodles-and-rice-chicago", "name": "Joy's Noodles & Rice", "image_url": "https://s3-media3.fl.yelpcdn.com/bphoto/S8kJmC2WUKTvlGiRkxD7Xg/o.jpg", "is_closed": false, "url": "https://www.yelp.com/biz/joys-noodles-and-rice-chicago?adjust_creative=7CK4ybIEl13vojI6byrxTw&utm_campaign=yelp_api_v3&utm_medium=api_v3_business_search&utm_source=7CK4ybIEl13vojI6byrxTw", "review_count": 933, "categories": [{"alias": "thai", "title": "Thai"}, {"alias": "noodles", "title": "Noodles"}], "rating": 4.0, "coordinates": {"latitude": 41.941753, "longitude": -87.644134}, "transactions": ["pickup", "delivery"], "price": "$$", "location": {"address1": "3257 N Broadway", "address2": "", "address3": "", "city": "Chicago", "zip_code": "60657", "country": "US", "state": "IL", "display_address": ["3257 N Broadway", "Chicago, IL 60657"]}, "phone": "+17733278330", "display_phone": "(773) 327-8330", "distance": 5522.870384396935}, {"id": "LQOMDnwbJLsqKNnGNCeNWA", "alias": "jieyi-sushi-chicago-4", "name": "Jieyi Sushi", "image_url": "https://s3-media3.fl.yelpcdn.com/bphoto/NRmlnYUp_fcrGpAhTClx6Q/o.jpg", "is_closed": false, "url": "https://www.yelp.com/biz/jieyi-sushi-chicago-4?adjust_creative=7CK4ybIEl13vojI6byrxTw&utm_campaign=yelp_api_v3&utm_medium=api_v3_business_search&utm_source=7CK4ybIEl13vojI6byrxTw", "review_count": 175, "categories": [{"alias": "sushi", "title": "Sushi Bars"}, {"alias": "japanese", "title": "Japanese"}, {"alias": "thai", "title": "Thai"}], "rating": 4.0, "coordinates": {"latitude": 41.902974, "longitude": -87.666334}, "transactions": ["restaurant_reservation", "pickup", "delivery"], "price": "$$", "location": {"address1": "1178 N Milwaukee Ave", "address2": "", "address3": null, "city": "Chicago", "zip_code": "60642", "country": "US", "state": "IL", "display_address": ["1178 N Milwaukee Ave", "Chicago, IL 60642"]}, "phone": "+17732925885", "display_phone": "(773) 292-5885", "distance": 1700.1765126068374}, {"id": "YAE99vK_R1ksw9zWoA8T-A", "alias": "hom-mali-chicago-2", "name": "Hom Mali", "image_url": "https://s3-media2.fl.yelpcdn.com/bphoto/7bw--4VO3YMC0VzL24A3zA/o.jpg", "is_closed": false, "url": "https://www.yelp.com/biz/hom-mali-chicago-2?adjust_creative=7CK4ybIEl13vojI6byrxTw&utm_campaign=yelp_api_v3&utm_medium=api_v3_business_search&utm_source=7CK4ybIEl13vojI6byrxTw", "review_count": 107, "categories": [{"alias": "thai", "title": "Thai"}], "rating": 4.5, "coordinates": {"latitude": 41.910854, "longitude": -87.6393958}, "transactions": ["pickup", "delivery"], "location": {"address1": "417 W North Ave", "address2": null, "address3": "", "city": "Chicago", "zip_code": "60610", "country": "US", "state": "IL", "display_address": ["417 W North Ave", "Chicago, IL 60610"]}, "phone": "+13126643400", "display_phone": "(312) 664-3400", "distance": 4011.149212017569}, {"id": "kUpqpEqkBjZguS1uA6NQYA", "alias": "en-hakkore-2-0-chicago-15", "name": "En Hakkore 2.0", "image_url": "https://s3-media2.fl.yelpcdn.com/bphoto/qXOKGJQlWho6lHiY9usKMQ/o.jpg", "is_closed": false, "url": "https://www.yelp.com/biz/en-hakkore-2-0-chicago-15?adjust_creative=7CK4ybIEl13vojI6byrxTw&utm_campaign=yelp_api_v3&utm_medium=api_v3_business_search&utm_source=7CK4ybIEl13vojI6byrxTw", "review_count": 510, "categories": [{"alias": "asianfusion", "title": "Asian Fusion"}, {"alias": "poke", "title": "Poke"}, {"alias": "sushi", "title": "Sushi Bars"}], "rating": 4.5, "coordinates": {"latitude": 41.90859268098761, "longitude": -87.67442096514347}, "transactions": ["pickup", "delivery"], "price": "$$", "location": {"address1": "1467 N Milwaukee Ave", "address2": null, "address3": "", "city": "Chicago", "zip_code": "60622", "country": "US", "state": "IL", "display_address": ["1467 N Milwaukee Ave", "Chicago, IL 60622"]}, "phone": "+17732785959", "display_phone": "(773) 278-5959", "distance": 1172.3270504424224}, {"id": "Qz5uN801Hx2cFrfI7sggoQ", "alias": "mak-restaurant-chicago", "name": "MAK Restaurant", "image_url": "https://s3-media4.fl.yelpcdn.com/bphoto/4dBdru6dZQCBW2LQEO5o-w/o.jpg", "is_closed": false, "url": "https://www.yelp.com/biz/mak-restaurant-chicago?adjust_creative=7CK4ybIEl13vojI6byrxTw&utm_campaign=yelp_api_v3&utm_medium=api_v3_business_search&utm_source=7CK4ybIEl13vojI6byrxTw", "review_count": 280, "categories": [{"alias": "asianfusion", "title": "Asian Fusion"}, {"alias": "chinese", "title": "Chinese"}], "rating": 4.0, "coordinates": {"latitude": 41.9032611, "longitude": -87.6759818}, "transactions": ["pickup", "delivery"], "price": "$$", "location": {"address1": "1924 W Division St", "address2": "", "address3": "", "city": "Chicago", "zip_code": "60622", "country": "US", "state": "IL", "display_address": ["1924 W Division St", "Chicago, IL 60622"]}, "phone": "+17737726251", "display_phone": "(773) 772-6251", "distance": 901.0944431065888}, {"id": "SagrY7hDKDVfCHeDCKpifw", "alias": "noodles-in-the-pot-chicago", "name": "Noodles In the Pot", "image_url": "https://s3-media2.fl.yelpcdn.com/bphoto/wbwV22TiHUwnwiPbWyWAtA/o.jpg", "is_closed": false, "url": "https://www.yelp.com/biz/noodles-in-the-pot-chicago?adjust_creative=7CK4ybIEl13vojI6byrxTw&utm_campaign=yelp_api_v3&utm_medium=api_v3_business_search&utm_source=7CK4ybIEl13vojI6byrxTw", "review_count": 715, "categories": [{"alias": "thai", "title": "Thai"}, {"alias": "noodles", "title": "Noodles"}], "rating": 4.0, "coordinates": {"latitude": 41.9269149578037, "longitude": -87.6487970352173}, "transactions": ["pickup", "delivery"], "price": "$$", "location": {"address1": "2453 N Halsted St", "address2": "", "address3": "", "city": "Chicago", "zip_code": "60614", "country": "US", "state": "IL", "display_address": ["2453 N Halsted St", "Chicago, IL 60614"]}, "phone": "+17739756177", "display_phone": "(773) 975-6177", "distance": 4082.8439642344997}, {"id": "o6O9gCksHBGG7-m0PwRH_g", "alias": "urbanbelly-chicago-26", "name": "Urbanbelly", "image_url": "https://s3-media1.fl.yelpcdn.com/bphoto/jgx5Xys3hXHlg8VD_f0WJg/o.jpg", "is_closed": false, "url": "https://www.yelp.com/biz/urbanbelly-chicago-26?adjust_creative=7CK4ybIEl13vojI6byrxTw&utm_campaign=yelp_api_v3&utm_medium=api_v3_business_search&utm_source=7CK4ybIEl13vojI6byrxTw", "review_count": 285, "categories": [{"alias": "asianfusion", "title": "Asian Fusion"}, {"alias": "ramen", "title": "Ramen"}], "rating": 4.0, "coordinates": {"latitude": 41.90975, "longitude": -87.6778099}, "transactions": ["pickup", "delivery"], "price": "$$", "location": {"address1": "1542 N Damen Ave", "address2": "", "address3": "", "city": "Chicago", "zip_code": "60622", "country": "US", "state": "IL", "display_address": ["1542 N Damen Ave", "Chicago, IL 60622"]}, "phone": "+17739048606", "display_phone": "(773) 904-8606", "distance": 1013.9247665037261}, {"id": "q7SQnw2xVHjWuyQXL3VHUg", "alias": "kai-zan-chicago", "name": "KAI ZAN", "image_url": "https://s3-media2.fl.yelpcdn.com/bphoto/UQMQ7klk0gZkUM8Vpk1GRw/o.jpg", "is_closed": false, "url": "https://www.yelp.com/biz/kai-zan-chicago?adjust_creative=7CK4ybIEl13vojI6byrxTw&utm_campaign=yelp_api_v3&utm_medium=api_v3_business_search&utm_source=7CK4ybIEl13vojI6byrxTw", "review_count": 1111, "categories": [{"alias": "asianfusion", "title": "Asian Fusion"}, {"alias": "japanese", "title": "Japanese"}, {"alias": "sushi", "title": "Sushi Bars"}], "rating": 4.5, "coordinates": {"latitude": 41.8955051374998, "longitude": -87.6915407180786}, "transactions": ["delivery", "restaurant_reservation"], "price": "$$$", "location": {"address1": "2557 W Chicago Ave", "address2": null, "address3": "", "city": "Chicago", "zip_code": "60622", "country": "US", "state": "IL", "display_address": ["2557 W Chicago Ave", "Chicago, IL 60622"]}, "phone": "+17732785776", "display_phone": "(773) 278-5776", "distance": 974.9150654990775}, {"id": "e099dWWi54g04eoe1WYbrw", "alias": "paulas-thai-kitchen-chicago", "name": "Paula's Thai Kitchen", "image_url": "https://s3-media1.fl.yelpcdn.com/bphoto/_4ju3ffoCAmGf3B0sBJFLQ/o.jpg", "is_closed": false, "url": "https://www.yelp.com/biz/paulas-thai-kitchen-chicago?adjust_creative=7CK4ybIEl13vojI6byrxTw&utm_campaign=yelp_api_v3&utm_medium=api_v3_business_search&utm_source=7CK4ybIEl13vojI6byrxTw", "review_count": 122, "categories": [{"alias": "thai", "title": "Thai"}], "rating": 4.0, "coordinates": {"latitude": 41.92671, "longitude": -87.64845}, "transactions": ["pickup", "delivery"], "price": "$$", "location": {"address1": "2441 N Halsted St", "address2": "", "address3": "", "city": "Chicago", "zip_code": "60614", "country": "US", "state": "IL", "display_address": ["2441 N Halsted St", "Chicago, IL 60614"]}, "phone": "+17736878961", "display_phone": "(773) 687-8961", "distance": 4085.4902956207197}, {"id": "49tem-546FJClWY_TxXTwg", "alias": "joy-yee-noodle-roscoe-chicago-2", "name": "Joy Yee Noodle  Roscoe", "image_url": "https://s3-media1.fl.yelpcdn.com/bphoto/nr9lu9eyWT4wnH4Lg407pQ/o.jpg", "is_closed": false, "url": "https://www.yelp.com/biz/joy-yee-noodle-roscoe-chicago-2?adjust_creative=7CK4ybIEl13vojI6byrxTw&utm_campaign=yelp_api_v3&utm_medium=api_v3_business_search&utm_source=7CK4ybIEl13vojI6byrxTw", "review_count": 14, "categories": [{"alias": "panasian", "title": "Pan Asian"}], "rating": 4.0, "coordinates": {"latitude": 41.9421869, "longitude": -87.6883886}, "transactions": ["pickup", "delivery"], "location": {"address1": "3336 N Western Ave", "address2": null, "address3": "", "city": "Chicago", "zip_code": "60618", "country": "US", "state": "IL", "display_address": ["3336 N Western Ave", "Chicago, IL 60618"]}, "phone": "+17738718888", "display_phone": "(773) 871-8888", "distance": 4252.09833824376}, {"id": "CoSRSpByyyNMuI8m15PH7A", "alias": "thee-asian-restaurant-chicago", "name": "Thee Asian Restaurant", "image_url": "https://s3-media1.fl.yelpcdn.com/bphoto/sH8wEkdHX1ifiTSoGgJN8A/o.jpg", "is_closed": false, "url": "https://www.yelp.com/biz/thee-asian-restaurant-chicago?adjust_creative=7CK4ybIEl13vojI6byrxTw&utm_campaign=yelp_api_v3&utm_medium=api_v3_business_search&utm_source=7CK4ybIEl13vojI6byrxTw", "review_count": 196, "categories": [{"alias": "chinese", "title": "Chinese"}, {"alias": "asianfusion", "title": "Asian Fusion"}], "rating": 3.5, "coordinates": {"latitude": 41.91028, "longitude": -87.6732}, "transactions": ["pickup", "delivery"], "price": "$$", "location": {"address1": "1811 W North Ave", "address2": "", "address3": "", "city": "Chicago", "zip_code": "60622", "country": "US", "state": "IL", "display_address": ["1811 W North Ave", "Chicago, IL 60622"]}, "phone": "+17732522218", "display_phone": "(773) 252-2218", "distance": 1351.2498022224866}, {"id": "TjXpq3ngGSwnp8mLf1fMZA", "alias": "talay-chicago-chicago", "name": "Talay Chicago", "image_url": "https://s3-media1.fl.yelpcdn.com/bphoto/CREGRaDdvA_-x-c_22ZOUQ/o.jpg", "is_closed": false, "url": "https://www.yelp.com/biz/talay-chicago-chicago?adjust_creative=7CK4ybIEl13vojI6byrxTw&utm_campaign=yelp_api_v3&utm_medium=api_v3_business_search&utm_source=7CK4ybIEl13vojI6byrxTw", "review_count": 276, "categories": [{"alias": "thai", "title": "Thai"}, {"alias": "sushi", "title": "Sushi Bars"}], "rating": 4.0, "coordinates": {"latitude": 41.8819675, "longitude": -87.6578818}, "transactions": ["pickup", "delivery"], "price": "$$", "location": {"address1": "1222 W Madison St", "address2": "", "address3": "", "city": "Chicago", "zip_code": "60607", "country": "US", "state": "IL", "display_address": ["1222 W Madison St", "Chicago, IL 60607"]}, "phone": "+13127330812", "display_phone": "(312) 733-0812", "distance": 3393.3470979599942}, {"id": "vxoQdpmrko42MTuXfvb_yQ", "alias": "jaiyen-sushi-and-noodle-chicago", "name": "Jaiyen Sushi & Noodle", "image_url": "https://s3-media2.fl.yelpcdn.com/bphoto/xLsmqfBpnq2o3XPSKYh-Eg/o.jpg", "is_closed": false, "url": "https://www.yelp.com/biz/jaiyen-sushi-and-noodle-chicago?adjust_creative=7CK4ybIEl13vojI6byrxTw&utm_campaign=yelp_api_v3&utm_medium=api_v3_business_search&utm_source=7CK4ybIEl13vojI6byrxTw", "review_count": 222, "categories": [{"alias": "noodles", "title": "Noodles"}], "rating": 4.0, "coordinates": {"latitude": 41.939183, "longitude": -87.6976751}, "transactions": ["pickup", "delivery"], "price": "$$", "location": {"address1": "3159 N California Ave", "address2": "", "address3": "", "city": "Chicago", "zip_code": "60618", "country": "US", "state": "IL", "display_address": ["3159 N California Ave", "Chicago, IL 60618"]}, "phone": "+17737548700", "display_phone": "(773) 754-8700", "distance": 4069.9623519152747}, {"id": "XHGWwHgX9p8dn2nOhqfJoQ", "alias": "little-wok-wicker-park-chicago", "name": "Little Wok Wicker Park", "image_url": "https://s3-media2.fl.yelpcdn.com/bphoto/TpVMBw89ETJUCZjiiDtzug/o.jpg", "is_closed": false, "url": "https://www.yelp.com/biz/little-wok-wicker-park-chicago?adjust_creative=7CK4ybIEl13vojI6byrxTw&utm_campaign=yelp_api_v3&utm_medium=api_v3_business_search&utm_source=7CK4ybIEl13vojI6byrxTw", "review_count": 35, "categories": [{"alias": "asianfusion", "title": "Asian Fusion"}, {"alias": "chinese", "title": "Chinese"}, {"alias": "sushi", "title": "Sushi Bars"}], "rating": 4.5, "coordinates": {"latitude": 41.90351, "longitude": -87.6768}, "transactions": ["pickup", "delivery"], "price": "$$", "location": {"address1": "1950 W Division St", "address2": "", "address3": null, "city": "Chicago", "zip_code": "60622", "country": "US", "state": "IL", "display_address": ["1950 W Division St", "Chicago, IL 60622"]}, "phone": "+17738865051", "display_phone": "(773) 886-5051", "distance": 820.241638115671}, {"id": "jDlt7kDkvLIf-v0El5MlYQ", "alias": "late-night-thai-and-sushi-chicago", "name": "Late Night Thai & Sushi", "image_url": "https://s3-media3.fl.yelpcdn.com/bphoto/4Fqebohe5YVrjxK_T0HcGA/o.jpg", "is_closed": false, "url": "https://www.yelp.com/biz/late-night-thai-and-sushi-chicago?adjust_creative=7CK4ybIEl13vojI6byrxTw&utm_campaign=yelp_api_v3&utm_medium=api_v3_business_search&utm_source=7CK4ybIEl13vojI6byrxTw", "review_count": 113, "categories": [{"alias": "thai", "title": "Thai"}, {"alias": "sushi", "title": "Sushi Bars"}, {"alias": "japanese", "title": "Japanese"}], "rating": 2.5, "coordinates": {"latitude": 41.93994, "longitude": -87.66974}, "transactions": ["pickup", "delivery"], "price": "$", "location": {"address1": "1624 W Belmont Ave", "address2": "", "address3": "", "city": "Chicago", "zip_code": "60657", "country": "US", "state": "IL", "display_address": ["1624 W Belmont Ave", "Chicago, IL 60657"]}, "phone": "+17733279945", "display_phone": "(773) 327-9945", "distance": 4281.404258563596}, {"id": "FzYi3AVHoYZnWXe1BQrQEw", "alias": "mott-st-chicago-2", "name": "Mott St", "image_url": "https://s3-media3.fl.yelpcdn.com/bphoto/fKsOCxuPYcXpiP29Jq2b2g/o.jpg", "is_closed": false, "url": "https://www.yelp.com/biz/mott-st-chicago-2?adjust_creative=7CK4ybIEl13vojI6byrxTw&utm_campaign=yelp_api_v3&utm_medium=api_v3_business_search&utm_source=7CK4ybIEl13vojI6byrxTw", "review_count": 826, "categories": [{"alias": "asianfusion", "title": "Asian Fusion"}, {"alias": "bars", "title": "Bars"}], "rating": 4.0, "coordinates": {"latitude": 41.9071254164458, "longitude": -87.6673834605751}, "transactions": ["pickup", "delivery"], "price": "$$", "location": {"address1": "1401 N Ashland Ave", "address2": "", "address3": "", "city": "Chicago", "zip_code": "60622", "country": "US", "state": "IL", "display_address": ["1401 N Ashland Ave", "Chicago, IL 60622"]}, "phone": "+17736879977", "display_phone": "(773) 687-9977", "distance": 1660.309826984095}, {"id": "O5DxHwAON5jvAplwAYUAww", "alias": "tom-yum-cafe-chicago", "name": "Tom Yum Cafe", "image_url": "https://s3-media2.fl.yelpcdn.com/bphoto/iVxY44rWYsQWXWpCAOYMng/o.jpg", "is_closed": false, "url": "https://www.yelp.com/biz/tom-yum-cafe-chicago?adjust_creative=7CK4ybIEl13vojI6byrxTw&utm_campaign=yelp_api_v3&utm_medium=api_v3_business_search&utm_source=7CK4ybIEl13vojI6byrxTw", "review_count": 169, "categories": [{"alias": "thai", "title": "Thai"}], "rating": 4.0, "coordinates": {"latitude": 41.9380112, "longitude": -87.6447601}, "transactions": ["pickup", "delivery"], "price": "$", "location": {"address1": "608 W Barry Ave", "address2": null, "address3": "", "city": "Chicago", "zip_code": "60657", "country": "US", "state": "IL", "display_address": ["608 W Barry Ave", "Chicago, IL 60657"]}, "phone": "+17732705646", "display_phone": "(773) 270-5646", "distance": 5185.452383573468}, {"id": "hAx8Ol4TcdtiPanUMmquCw", "alias": "saimai-thai-chicago-2", "name": "SaiMai Thai", "image_url": "https://s3-media1.fl.yelpcdn.com/bphoto/pPib1ImBuATYiSbDXQ0dKQ/o.jpg", "is_closed": false, "url": "https://www.yelp.com/biz/saimai-thai-chicago-2?adjust_creative=7CK4ybIEl13vojI6byrxTw&utm_campaign=yelp_api_v3&utm_medium=api_v3_business_search&utm_source=7CK4ybIEl13vojI6byrxTw", "review_count": 173, "categories": [{"alias": "thai", "title": "Thai"}], "rating": 4.0, "coordinates": {"latitude": 41.9186, "longitude": -87.63792}, "transactions": ["pickup", "delivery"], "price": "$$", "location": {"address1": "338 W Armitage Ave", "address2": "", "address3": "", "city": "Chicago", "zip_code": "60614", "country": "US", "state": "IL", "display_address": ["338 W Armitage Ave", "Chicago, IL 60614"]}, "phone": "+17733483888", "display_phone": "(773) 348-3888", "distance": 4383.500594670719}, {"id": "U9D0vqEP4QrJfJYs8mr3DA", "alias": "oiistar-chicago", "name": "Oiistar", "image_url": "https://s3-media2.fl.yelpcdn.com/bphoto/L5SxQV-wWVqzNCqB4JzhaA/o.jpg", "is_closed": false, "url": "https://www.yelp.com/biz/oiistar-chicago?adjust_creative=7CK4ybIEl13vojI6byrxTw&utm_campaign=yelp_api_v3&utm_medium=api_v3_business_search&utm_source=7CK4ybIEl13vojI6byrxTw", "review_count": 1047, "categories": [{"alias": "asianfusion", "title": "Asian Fusion"}, {"alias": "ramen", "title": "Ramen"}], "rating": 4.0, "coordinates": {"latitude": 41.90708880046081, "longitude": -87.67210403709154}, "transactions": [], "price": "$$", "location": {"address1": "1385 N Milwaukee Ave", "address2": "", "address3": "", "city": "Chicago", "zip_code": "60622", "country": "US", "state": "IL", "display_address": ["1385 N Milwaukee Ave", "Chicago, IL 60622"]}, "phone": "+17733608791", "display_phone": "(773) 360-8791", "distance": 1283.1583486981835}, {"id": "PuXKTsA_7qVZU8rZlf9HWA", "alias": "bixi-beer-chicago-8", "name": "BiXi Beer", "image_url": "https://s3-media4.fl.yelpcdn.com/bphoto/rtAKyKbuUGv3KawopAoEGA/o.jpg", "is_closed": false, "url": "https://www.yelp.com/biz/bixi-beer-chicago-8?adjust_creative=7CK4ybIEl13vojI6byrxTw&utm_campaign=yelp_api_v3&utm_medium=api_v3_business_search&utm_source=7CK4ybIEl13vojI6byrxTw", "review_count": 329, "categories": [{"alias": "asianfusion", "title": "Asian Fusion"}, {"alias": "brewpubs", "title": "Brewpubs"}], "rating": 4.0, "coordinates": {"latitude": 41.9271457780326, "longitude": -87.703986418801}, "transactions": ["pickup", "delivery"], "price": "$$", "location": {"address1": "2515 N Milwaukee Ave", "address2": "", "address3": null, "city": "Chicago", "zip_code": "60647", "country": "US", "state": "IL", "display_address": ["2515 N Milwaukee Ave", "Chicago, IL 60647"]}, "phone": "+17739047368", "display_phone": "(773) 904-7368", "distance": 2981.6751236581713}, {"id": "gs-PZjw3VONWJQFCSTDTeg", "alias": "sunset-pho-caffe-chicago-4", "name": "Sunset Pho Caffe", "image_url": "https://s3-media3.fl.yelpcdn.com/bphoto/GjIRWBRkrpI7vs5odlfkwA/o.jpg", "is_closed": false, "url": "https://www.yelp.com/biz/sunset-pho-caffe-chicago-4?adjust_creative=7CK4ybIEl13vojI6byrxTw&utm_campaign=yelp_api_v3&utm_medium=api_v3_business_search&utm_source=7CK4ybIEl13vojI6byrxTw", "review_count": 381, "categories": [{"alias": "lounges", "title": "Lounges"}, {"alias": "vietnamese", "title": "Vietnamese"}, {"alias": "modern_european", "title": "Modern European"}], "rating": 4.5, "coordinates": {"latitude": 41.9342291, "longitude": -87.6462028}, "transactions": ["pickup", "delivery"], "price": "$$", "location": {"address1": "2856 N Clark St", "address2": "", "address3": "", "city": "Chicago", "zip_code": "60657", "country": "US", "state": "IL", "display_address": ["2856 N Clark St", "Chicago, IL 60657"]}, "phone": "+17732752327", "display_phone": "(773) 275-2327", "distance": 4783.607423256113}, {"id": "XWodOV8dW4WlK2XB3j6JnA", "alias": "chef-s-special-cocktail-bar-chicago", "name": "Chef\u2019s Special Cocktail Bar", "image_url": "https://s3-media3.fl.yelpcdn.com/bphoto/fkeYZf3dG7yOE72Ng1hzhw/o.jpg", "is_closed": false, "url": "https://www.yelp.com/biz/chef-s-special-cocktail-bar-chicago?adjust_creative=7CK4ybIEl13vojI6byrxTw&utm_campaign=yelp_api_v3&utm_medium=api_v3_business_search&utm_source=7CK4ybIEl13vojI6byrxTw", "review_count": 126, "categories": [{"alias": "cocktailbars", "title": "Cocktail Bars"}, {"alias": "chinese", "title": "Chinese"}, {"alias": "seafood", "title": "Seafood"}], "rating": 4.5, "coordinates": {"latitude": 41.921762, "longitude": -87.6872132}, "transactions": ["delivery"], "location": {"address1": "2165 N Western Ave", "address2": "", "address3": null, "city": "Chicago", "zip_code": "60647", "country": "US", "state": "IL", "display_address": ["2165 N Western Ave", "Chicago, IL 60647"]}, "phone": "+17736665143", "display_phone": "(773) 666-5143", "distance": 2025.0867943590315}, {"id": "pglLq_8c2grcKez_wX8WPw", "alias": "ryuu-asian-bbq-and-sushi-chicago", "name": "RYUU Asian BBQ & Sushi", "image_url": "https://s3-media2.fl.yelpcdn.com/bphoto/dZ8PeMWWdlUa_MmJhTyHWA/o.jpg", "is_closed": false, "url": "https://www.yelp.com/biz/ryuu-asian-bbq-and-sushi-chicago?adjust_creative=7CK4ybIEl13vojI6byrxTw&utm_campaign=yelp_api_v3&utm_medium=api_v3_business_search&utm_source=7CK4ybIEl13vojI6byrxTw", "review_count": 263, "categories": [{"alias": "korean", "title": "Korean"}, {"alias": "asianfusion", "title": "Asian Fusion"}, {"alias": "sushi", "title": "Sushi Bars"}], "rating": 4.0, "coordinates": {"latitude": 41.9313684850931, "longitude": -87.7113179862499}, "transactions": ["pickup", "delivery"], "price": "$$", "location": {"address1": "2766 N Milwaukee Ave", "address2": null, "address3": "", "city": "Chicago", "zip_code": "60647", "country": "US", "state": "IL", "display_address": ["2766 N Milwaukee Ave", "Chicago, IL 60647"]}, "phone": "+17736611919", "display_phone": "(773) 661-1919", "distance": 3703.013134541728}, {"id": "rd4NrLcEOKBVaGRIkC35NQ", "alias": "takie-outit-chicago-2", "name": "Takie Outit", "image_url": "https://s3-media2.fl.yelpcdn.com/bphoto/LewUyBFmX9wFJIy3zI-rzA/o.jpg", "is_closed": false, "url": "https://www.yelp.com/biz/takie-outit-chicago-2?adjust_creative=7CK4ybIEl13vojI6byrxTw&utm_campaign=yelp_api_v3&utm_medium=api_v3_business_search&utm_source=7CK4ybIEl13vojI6byrxTw", "review_count": 216, "categories": [{"alias": "chinese", "title": "Chinese"}], "rating": 3.5, "coordinates": {"latitude": 41.89611, "longitude": -87.68086}, "transactions": ["pickup", "delivery"], "price": "$", "location": {"address1": "2132 W Chicago Ave", "address2": null, "address3": "", "city": "Chicago", "zip_code": "60622", "country": "US", "state": "IL", "display_address": ["2132 W Chicago Ave", "Chicago, IL 60622"]}, "phone": "+17732521880", "display_phone": "(773) 252-1880", "distance": 966.4913831994623}, {"id": "EYjyi_lytYaM1Ty7-kNKSg", "alias": "phodega-chicago", "name": "Phodega", "image_url": "https://s3-media4.fl.yelpcdn.com/bphoto/lYq4As8StRZzfYfTes0AaQ/o.jpg", "is_closed": false, "url": "https://www.yelp.com/biz/phodega-chicago?adjust_creative=7CK4ybIEl13vojI6byrxTw&utm_campaign=yelp_api_v3&utm_medium=api_v3_business_search&utm_source=7CK4ybIEl13vojI6byrxTw", "review_count": 164, "categories": [{"alias": "vietnamese", "title": "Vietnamese"}, {"alias": "hainan", "title": "Hainan"}, {"alias": "noodles", "title": "Noodles"}], "rating": 4.5, "coordinates": {"latitude": 41.9101939867386, "longitude": -87.667388767004}, "transactions": ["pickup", "delivery"], "price": "$$", "location": {"address1": "1547 N Ashland Ave", "address2": "", "address3": null, "city": "Chicago", "zip_code": "60622", "country": "US", "state": "IL", "display_address": ["1547 N Ashland Ave", "Chicago, IL 60622"]}, "phone": "+17736878187", "display_phone": "(773) 687-8187", "distance": 1772.761278826165}, {"id": "zF9o33BVqLUOcCmnuB2eQw", "alias": "handlebar-chicago", "name": "Handlebar", "image_url": "https://s3-media2.fl.yelpcdn.com/bphoto/IadSfgo5PLN7foSPd1ymzA/o.jpg", "is_closed": false, "url": "https://www.yelp.com/biz/handlebar-chicago?adjust_creative=7CK4ybIEl13vojI6byrxTw&utm_campaign=yelp_api_v3&utm_medium=api_v3_business_search&utm_source=7CK4ybIEl13vojI6byrxTw", "review_count": 1571, "categories": [{"alias": "vegetarian", "title": "Vegetarian"}, {"alias": "bars", "title": "Bars"}, {"alias": "vegan", "title": "Vegan"}], "rating": 4.0, "coordinates": {"latitude": 41.9100899, "longitude": -87.6853}, "transactions": ["pickup", "delivery"], "price": "$$", "location": {"address1": "2311 W North Ave", "address2": "", "address3": "", "city": "Chicago", "zip_code": "60647", "country": "US", "state": "IL", "display_address": ["2311 W North Ave", "Chicago, IL 60647"]}, "phone": "+17733849546", "display_phone": "(773) 384-9546", "distance": 739.4270947817665}, {"id": "UCWY0g9aWBxBmMwp1dDD1A", "alias": "yummy-thai-chicago", "name": "Yummy Thai", "image_url": "https://s3-media4.fl.yelpcdn.com/bphoto/FEVMIxjR8kxaWEr9WIrvnA/o.jpg", "is_closed": false, "url": "https://www.yelp.com/biz/yummy-thai-chicago?adjust_creative=7CK4ybIEl13vojI6byrxTw&utm_campaign=yelp_api_v3&utm_medium=api_v3_business_search&utm_source=7CK4ybIEl13vojI6byrxTw", "review_count": 281, "categories": [{"alias": "thai", "title": "Thai"}], "rating": 3.5, "coordinates": {"latitude": 41.8695869445801, "longitude": -87.6624374389648}, "transactions": ["pickup", "delivery"], "price": "$", "location": {"address1": "1418 W Taylor St", "address2": "", "address3": "", "city": "Chicago", "zip_code": "60607", "country": "US", "state": "IL", "display_address": ["1418 W Taylor St", "Chicago, IL 60607"]}, "phone": "+13126330003", "display_phone": "(312) 633-0003", "distance": 4286.30106243208}, {"id": "iF6hk5Uz3Vd8Ie9lfW36uQ", "alias": "thai-bowl-chicago", "name": "Thai Bowl", "image_url": "https://s3-media4.fl.yelpcdn.com/bphoto/uS7wa2neqBV-6xtC7TF4iw/o.jpg", "is_closed": false, "url": "https://www.yelp.com/biz/thai-bowl-chicago?adjust_creative=7CK4ybIEl13vojI6byrxTw&utm_campaign=yelp_api_v3&utm_medium=api_v3_business_search&utm_source=7CK4ybIEl13vojI6byrxTw", "review_count": 394, "categories": [{"alias": "thai", "title": "Thai"}], "rating": 3.5, "coordinates": {"latitude": 41.8692207336426, "longitude": -87.6530456542969}, "transactions": ["delivery"], "price": "$", "location": {"address1": "1049 W Taylor St", "address2": "", "address3": "", "city": "Chicago", "zip_code": "60607", "country": "US", "state": "IL", "display_address": ["1049 W Taylor St", "Chicago, IL 60607"]}, "phone": "+13122269129", "display_phone": "(312) 226-9129", "distance": 4726.010455249666}, {"id": "JaQ91cEthG6G5oFJu8Y1jg", "alias": "thai-thank-you-chicago-2", "name": "Thai Thank You", "image_url": "https://s3-media1.fl.yelpcdn.com/bphoto/vRcp-AvviFpwXSYjZii70A/o.jpg", "is_closed": false, "url": "https://www.yelp.com/biz/thai-thank-you-chicago-2?adjust_creative=7CK4ybIEl13vojI6byrxTw&utm_campaign=yelp_api_v3&utm_medium=api_v3_business_search&utm_source=7CK4ybIEl13vojI6byrxTw", "review_count": 178, "categories": [{"alias": "thai", "title": "Thai"}], "rating": 3.5, "coordinates": {"latitude": 41.94092, "longitude": -87.66977}, "transactions": ["pickup", "delivery"], "price": "$", "location": {"address1": "3248 N Lincoln Ave", "address2": "", "address3": "", "city": "Chicago", "zip_code": "60657", "country": "US", "state": "IL", "display_address": ["3248 N Lincoln Ave", "Chicago, IL 60657"]}, "phone": "+17733487199", "display_phone": "(773) 348-7199", "distance": 4384.280322171111}, {"id": "89tZ6uoPgMktsiP9P6eq2g", "alias": "vegan-plate-chicago", "name": "Vegan Plate", "image_url": "https://s3-media2.fl.yelpcdn.com/bphoto/TYFyYt9ruooCsvHUN3cLzg/o.jpg", "is_closed": false, "url": "https://www.yelp.com/biz/vegan-plate-chicago?adjust_creative=7CK4ybIEl13vojI6byrxTw&utm_campaign=yelp_api_v3&utm_medium=api_v3_business_search&utm_source=7CK4ybIEl13vojI6byrxTw", "review_count": 263, "categories": [{"alias": "thai", "title": "Thai"}, {"alias": "vegan", "title": "Vegan"}], "rating": 4.5, "coordinates": {"latitude": 41.9254188537598, "longitude": -87.6677169799805}, "transactions": ["pickup", "delivery"], "price": "$$", "location": {"address1": "1550 W Fullerton Ave", "address2": "", "address3": "", "city": "Chicago", "zip_code": "60614", "country": "US", "state": "IL", "display_address": ["1550 W Fullerton Ave", "Chicago, IL 60614"]}, "phone": "+17734728208", "display_phone": "(773) 472-8208", "distance": 2898.1274270371523}, {"id": "OSyGZMwCI9w_0BbQtH-kCw", "alias": "duck-duck-goat-chicago", "name": "Duck Duck Goat", "image_url": "https://s3-media4.fl.yelpcdn.com/bphoto/B-9g9Mgdy6TCJv7NeRgwFA/o.jpg", "is_closed": false, "url": "https://www.yelp.com/biz/duck-duck-goat-chicago?adjust_creative=7CK4ybIEl13vojI6byrxTw&utm_campaign=yelp_api_v3&utm_medium=api_v3_business_search&utm_source=7CK4ybIEl13vojI6byrxTw", "review_count": 1540, "categories": [{"alias": "chinese", "title": "Chinese"}], "rating": 4.0, "coordinates": {"latitude": 41.88664865362301, "longitude": -87.64971816423973}, "transactions": ["delivery"], "price": "$$", "location": {"address1": "857 W Fulton Market", "address2": "", "address3": "", "city": "Chicago", "zip_code": "60607", "country": "US", "state": "IL", "display_address": ["857 W Fulton Market", "Chicago, IL 60607"]}, "phone": "+13129023825", "display_phone": "(312) 902-3825", "distance": 3603.4774109609484}, {"id": "PETcUQ9Jlll659KU-1g6IQ", "alias": "asian-avenue-chicago", "name": "Asian Avenue", "image_url": "https://s3-media4.fl.yelpcdn.com/bphoto/4yww-7XLBFqwIspmw1nyjQ/o.jpg", "is_closed": false, "url": "https://www.yelp.com/biz/asian-avenue-chicago?adjust_creative=7CK4ybIEl13vojI6byrxTw&utm_campaign=yelp_api_v3&utm_medium=api_v3_business_search&utm_source=7CK4ybIEl13vojI6byrxTw", "review_count": 83, "categories": [{"alias": "thai", "title": "Thai"}, {"alias": "sushi", "title": "Sushi Bars"}], "rating": 3.5, "coordinates": {"latitude": 41.93994, "longitude": -87.66974}, "transactions": ["pickup", "delivery"], "price": "$$", "location": {"address1": "1624 W Belmont Ave", "address2": null, "address3": "", "city": "Chicago", "zip_code": "60657", "country": "US", "state": "IL", "display_address": ["1624 W Belmont Ave", "Chicago, IL 60657"]}, "phone": "+17735492201", "display_phone": "(773) 549-2201", "distance": 4281.176900962207}, {"id": "7sSewVeXMw3W5ccrmSi-mg", "alias": "sakura-chicago-6", "name": "Sakura", "image_url": "https://s3-media3.fl.yelpcdn.com/bphoto/sKCCR7J9YWdoVRiVcl_rwA/o.jpg", "is_closed": false, "url": "https://www.yelp.com/biz/sakura-chicago-6?adjust_creative=7CK4ybIEl13vojI6byrxTw&utm_campaign=yelp_api_v3&utm_medium=api_v3_business_search&utm_source=7CK4ybIEl13vojI6byrxTw", "review_count": 274, "categories": [{"alias": "sushi", "title": "Sushi Bars"}, {"alias": "japanese", "title": "Japanese"}], "rating": 4.0, "coordinates": {"latitude": 41.9247277893337, "longitude": -87.6903283596039}, "transactions": ["pickup", "delivery"], "price": "$$", "location": {"address1": "2507 W Fullerton Ave", "address2": null, "address3": "", "city": "Chicago", "zip_code": "60647", "country": "US", "state": "IL", "display_address": ["2507 W Fullerton Ave", "Chicago, IL 60647"]}, "phone": "+17737724412", "display_phone": "(773) 772-4412", "distance": 2372.05525074161}, {"id": "c-33j2eSYNCppwBVLUFpzg", "alias": "yummy-yummy-asian-cuisine-chicago", "name": "Yummy Yummy Asian Cuisine", "image_url": "https://s3-media4.fl.yelpcdn.com/bphoto/lPaS4zti0DI2RgUXUxisXw/o.jpg", "is_closed": false, "url": "https://www.yelp.com/biz/yummy-yummy-asian-cuisine-chicago?adjust_creative=7CK4ybIEl13vojI6byrxTw&utm_campaign=yelp_api_v3&utm_medium=api_v3_business_search&utm_source=7CK4ybIEl13vojI6byrxTw", "review_count": 703, "categories": [{"alias": "chinese", "title": "Chinese"}, {"alias": "juicebars", "title": "Juice Bars & Smoothies"}], "rating": 4.0, "coordinates": {"latitude": 41.935016, "longitude": -87.644032}, "transactions": ["pickup", "delivery"], "price": "$$", "location": {"address1": "2901 N Broadway St", "address2": null, "address3": "", "city": "Chicago", "zip_code": "60657", "country": "US", "state": "IL", "display_address": ["2901 N Broadway St", "Chicago, IL 60657"]}, "phone": "+17735256677", "display_phone": "(773) 525-6677", "distance": 4979.849825991616}, {"id": "nHiQ7H4nKzYmoDDy9ZI0aQ", "alias": "sochi-saigon-kitchen-chicago", "name": "Sochi Saigon Kitchen", "image_url": "https://s3-media2.fl.yelpcdn.com/bphoto/uHGmsq7LJlY9_ZRzd6gzXw/o.jpg", "is_closed": false, "url": "https://www.yelp.com/biz/sochi-saigon-kitchen-chicago?adjust_creative=7CK4ybIEl13vojI6byrxTw&utm_campaign=yelp_api_v3&utm_medium=api_v3_business_search&utm_source=7CK4ybIEl13vojI6byrxTw", "review_count": 54, "categories": [{"alias": "vietnamese", "title": "Vietnamese"}, {"alias": "cocktailbars", "title": "Cocktail Bars"}, {"alias": "wine_bars", "title": "Wine Bars"}], "rating": 4.5, "coordinates": {"latitude": 41.940026652688616, "longitude": -87.663398964418}, "transactions": ["pickup", "delivery"], "location": {"address1": "1358 W Belmont Ave", "address2": "", "address3": null, "city": "Chicago", "zip_code": "60657", "country": "US", "state": "IL", "display_address": ["1358 W Belmont Ave", "Chicago, IL 60657"]}, "phone": "+17739048511", "display_phone": "(773) 904-8511", "distance": 4496.473290691766}, {"id": "7TlmhbxPa_FIp9euMtisdQ", "alias": "circle-sushi-and-grill-chicago", "name": "Circle Sushi & Grill", "image_url": "https://s3-media2.fl.yelpcdn.com/bphoto/Y3oFaBpOnx0Nvms-qzHRAA/o.jpg", "is_closed": false, "url": "https://www.yelp.com/biz/circle-sushi-and-grill-chicago?adjust_creative=7CK4ybIEl13vojI6byrxTw&utm_campaign=yelp_api_v3&utm_medium=api_v3_business_search&utm_source=7CK4ybIEl13vojI6byrxTw", "review_count": 218, "categories": [{"alias": "sushi", "title": "Sushi Bars"}, {"alias": "japanese", "title": "Japanese"}, {"alias": "thai", "title": "Thai"}], "rating": 4.0, "coordinates": {"latitude": 41.9116301504361, "longitude": -87.64812}, "transactions": ["pickup", "delivery"], "price": "$$", "location": {"address1": "1623 N Halsted St", "address2": "", "address3": "", "city": "Chicago", "zip_code": "60614", "country": "US", "state": "IL", "display_address": ["1623 N Halsted St", "Chicago, IL 60614"]}, "phone": "+13128671281", "display_phone": "(312) 867-1281", "distance": 3329.582172768166}, {"id": "tDbNHl646uM2HqnN_UlymA", "alias": "googoos-table-chicago", "name": "Googoo's Table", "image_url": "https://s3-media2.fl.yelpcdn.com/bphoto/LpkKwgSYPnnW_HNR6VFvOQ/o.jpg", "is_closed": false, "url": "https://www.yelp.com/biz/googoos-table-chicago?adjust_creative=7CK4ybIEl13vojI6byrxTw&utm_campaign=yelp_api_v3&utm_medium=api_v3_business_search&utm_source=7CK4ybIEl13vojI6byrxTw", "review_count": 76, "categories": [{"alias": "asianfusion", "title": "Asian Fusion"}], "rating": 4.0, "coordinates": {"latitude": 41.917308807373, "longitude": -87.7361297607422}, "transactions": ["pickup", "delivery"], "price": "$", "location": {"address1": "4356 W Armitage Ave", "address2": "", "address3": "", "city": "Chicago", "zip_code": "60639", "country": "US", "state": "IL", "display_address": ["4356 W Armitage Ave", "Chicago, IL 60639"]}, "phone": "+17732273999", "display_phone": "(773) 227-3999", "distance": 4351.609700439176}, {"id": "gxOKRrh2JrgfB0WgHXSnyw", "alias": "nine-thai-cuisine-chicago", "name": "Nine Thai Cuisine", "image_url": "https://s3-media1.fl.yelpcdn.com/bphoto/qF9NS4SO7251Fb-9oZeMWQ/o.jpg", "is_closed": false, "url": "https://www.yelp.com/biz/nine-thai-cuisine-chicago?adjust_creative=7CK4ybIEl13vojI6byrxTw&utm_campaign=yelp_api_v3&utm_medium=api_v3_business_search&utm_source=7CK4ybIEl13vojI6byrxTw", "review_count": 127, "categories": [{"alias": "thai", "title": "Thai"}], "rating": 3.5, "coordinates": {"latitude": 41.9250785713717, "longitude": -87.6401495446968}, "transactions": ["pickup", "delivery"], "price": "$$", "location": {"address1": "2349 N Clark St", "address2": "", "address3": "", "city": "Chicago", "zip_code": "60614", "country": "US", "state": "IL", "display_address": ["2349 N Clark St", "Chicago, IL 60614"]}, "phone": "+17733607087", "display_phone": "(773) 360-7087", "distance": 4546.447474653077}, {"id": "f1P5hZSitUEAC-mtXlBB7w", "alias": "del-seoul-chicago", "name": "Del Seoul", "image_url": "https://s3-media2.fl.yelpcdn.com/bphoto/XDUODSaUwEEJYuVA7IuH7w/o.jpg", "is_closed": false, "url": "https://www.yelp.com/biz/del-seoul-chicago?adjust_creative=7CK4ybIEl13vojI6byrxTw&utm_campaign=yelp_api_v3&utm_medium=api_v3_business_search&utm_source=7CK4ybIEl13vojI6byrxTw", "review_count": 2207, "categories": [{"alias": "korean", "title": "Korean"}, {"alias": "asianfusion", "title": "Asian Fusion"}, {"alias": "tacos", "title": "Tacos"}], "rating": 4.5, "coordinates": {"latitude": 41.929444, "longitude": -87.643016}, "transactions": ["pickup", "delivery"], "price": "$$", "location": {"address1": "2568 N Clark St", "address2": "", "address3": "", "city": "Chicago", "zip_code": "60614", "country": "US", "state": "IL", "display_address": ["2568 N Clark St", "Chicago, IL 60614"]}, "phone": "+17732484227", "display_phone": "(773) 248-4227", "distance": 4631.567387682322}, {"id": "PsQFHkJHhSqw7mOCh4Rs7w", "alias": "asian-cajun-chicago", "name": "Asian Cajun", "image_url": "https://s3-media1.fl.yelpcdn.com/bphoto/lXa_dB0H33mmHnADGLwxeA/o.jpg", "is_closed": false, "url": "https://www.yelp.com/biz/asian-cajun-chicago?adjust_creative=7CK4ybIEl13vojI6byrxTw&utm_campaign=yelp_api_v3&utm_medium=api_v3_business_search&utm_source=7CK4ybIEl13vojI6byrxTw", "review_count": 274, "categories": [{"alias": "cajun", "title": "Cajun/Creole"}, {"alias": "seafood", "title": "Seafood"}, {"alias": "asianfusion", "title": "Asian Fusion"}], "rating": 4.0, "coordinates": {"latitude": 41.92604, "longitude": -87.66852}, "transactions": ["pickup", "delivery"], "price": "$$", "location": {"address1": "2428 N Ashland Ave", "address2": "", "address3": "", "city": "Chicago", "zip_code": "60614", "country": "US", "state": "IL", "display_address": ["2428 N Ashland Ave", "Chicago, IL 60614"]}, "phone": "+13128799654", "display_phone": "(312) 879-9654", "distance": 2923.7025533036303}, {"id": "HP3zkN0SvoDzQiOdiMAKLw", "alias": "cheng-chopsticks-chicago", "name": "Cheng Chopsticks", "image_url": "https://s3-media1.fl.yelpcdn.com/bphoto/8kIozWlJHvQKqFKyxl_MJw/o.jpg", "is_closed": false, "url": "https://www.yelp.com/biz/cheng-chopsticks-chicago?adjust_creative=7CK4ybIEl13vojI6byrxTw&utm_campaign=yelp_api_v3&utm_medium=api_v3_business_search&utm_source=7CK4ybIEl13vojI6byrxTw", "review_count": 161, "categories": [{"alias": "chinese", "title": "Chinese"}], "rating": 3.5, "coordinates": {"latitude": 41.91716, "longitude": -87.704205}, "transactions": ["pickup", "delivery"], "price": "$", "location": {"address1": "3054 W Armitage Ave", "address2": "", "address3": "", "city": "Chicago", "zip_code": "60647", "country": "US", "state": "IL", "display_address": ["3054 W Armitage Ave", "Chicago, IL 60647"]}, "phone": "+17733841668", "display_phone": "(773) 384-1668", "distance": 2085.43672731602}, {"id": "-1N2SDvOKHrdGPhaPObTFA", "alias": "gorilla-sushi-wicker-park-chicago", "name": "Gorilla Sushi Wicker Park", "image_url": "https://s3-media2.fl.yelpcdn.com/bphoto/lFY9N99B2qytTyfekkAbcA/o.jpg", "is_closed": false, "url": "https://www.yelp.com/biz/gorilla-sushi-wicker-park-chicago?adjust_creative=7CK4ybIEl13vojI6byrxTw&utm_campaign=yelp_api_v3&utm_medium=api_v3_business_search&utm_source=7CK4ybIEl13vojI6byrxTw", "review_count": 122, "categories": [{"alias": "sushi", "title": "Sushi Bars"}, {"alias": "japanese", "title": "Japanese"}], "rating": 4.5, "coordinates": {"latitude": 41.9042133070814, "longitude": -87.6680816528738}, "transactions": ["delivery", "pickup"], "price": "$$", "location": {"address1": "1238 N Milwaukee Ave", "address2": "", "address3": null, "city": "Chicago", "zip_code": "60622", "country": "US", "state": "IL", "display_address": ["1238 N Milwaukee Ave", "Chicago, IL 60622"]}, "phone": "+17736879933", "display_phone": "(773) 687-9933", "distance": 1556.0519273493394}, {"id": "hy6J515b5BpcuJwnGQT20A", "alias": "red-pig-asian-kitchen-chicago", "name": "Red Pig Asian Kitchen", "image_url": "https://s3-media2.fl.yelpcdn.com/bphoto/O7y9_4eWp544E_hDECAzxw/o.jpg", "is_closed": false, "url": "https://www.yelp.com/biz/red-pig-asian-kitchen-chicago?adjust_creative=7CK4ybIEl13vojI6byrxTw&utm_campaign=yelp_api_v3&utm_medium=api_v3_business_search&utm_source=7CK4ybIEl13vojI6byrxTw", "review_count": 167, "categories": [{"alias": "thai", "title": "Thai"}], "rating": 4.0, "coordinates": {"latitude": 41.9358444, "longitude": -87.6444321}, "transactions": ["delivery", "pickup"], "price": "$$", "location": {"address1": "2932 N Broadway St", "address2": "", "address3": "", "city": "Chicago", "zip_code": "60657", "country": "US", "state": "IL", "display_address": ["2932 N Broadway St", "Chicago, IL 60657"]}, "phone": "+17734729999", "display_phone": "(773) 472-9999", "distance": 5018.169842973129}, {"id": "ckaOMnJA_uOpWzpW-Wpg2A", "alias": "kitchfix-chicago-3", "name": "Kitchfix", "image_url": "https://s3-media1.fl.yelpcdn.com/bphoto/rp9RDXHd8BAHwdI-ucwR5A/o.jpg", "is_closed": false, "url": "https://www.yelp.com/biz/kitchfix-chicago-3?adjust_creative=7CK4ybIEl13vojI6byrxTw&utm_campaign=yelp_api_v3&utm_medium=api_v3_business_search&utm_source=7CK4ybIEl13vojI6byrxTw", "review_count": 118, "categories": [{"alias": "fooddeliveryservices", "title": "Food Delivery Services"}], "rating": 5.0, "coordinates": {"latitude": 41.8907079, "longitude": -87.670764}, "transactions": [], "price": "$$", "location": {"address1": "1731 W Grand Ave", "address2": "", "address3": "", "city": "Chicago", "zip_code": "60622", "country": "US", "state": "IL", "display_address": ["1731 W Grand Ave", "Chicago, IL 60622"]}, "phone": "+13124020221", "display_phone": "(312) 402-0221", "distance": 1953.2409949602877}, {"id": "2R7ipjEkeQo821P9AnpJGA", "alias": "enso-sushi-and-bar-chicago-2", "name": "Enso Sushi & Bar", "image_url": "https://s3-media1.fl.yelpcdn.com/bphoto/ZhQwSSomb60_iuujerGZ6g/o.jpg", "is_closed": false, "url": "https://www.yelp.com/biz/enso-sushi-and-bar-chicago-2?adjust_creative=7CK4ybIEl13vojI6byrxTw&utm_campaign=yelp_api_v3&utm_medium=api_v3_business_search&utm_source=7CK4ybIEl13vojI6byrxTw", "review_count": 448, "categories": [{"alias": "sushi", "title": "Sushi Bars"}, {"alias": "ramen", "title": "Ramen"}, {"alias": "bars", "title": "Bars"}], "rating": 4.0, "coordinates": {"latitude": 41.9107586, "longitude": -87.6773651}, "transactions": ["delivery", "pickup"], "price": "$$", "location": {"address1": "1613 N Damen Ave", "address2": "", "address3": "", "city": "Chicago", "zip_code": "60647", "country": "US", "state": "IL", "display_address": ["1613 N Damen Ave", "Chicago, IL 60647"]}, "phone": "+17738788998", "display_phone": "(773) 878-8998", "distance": 1148.6831405001928}, {"id": "_d5Br6nZWpBNwL-4isroJA", "alias": "yuzu-sushi-and-robata-grill-chicago", "name": "Yuzu Sushi & Robata Grill", "image_url": "https://s3-media1.fl.yelpcdn.com/bphoto/xy3W0At5Em7gPeSomiv_Eg/o.jpg", "is_closed": false, "url": "https://www.yelp.com/biz/yuzu-sushi-and-robata-grill-chicago?adjust_creative=7CK4ybIEl13vojI6byrxTw&utm_campaign=yelp_api_v3&utm_medium=api_v3_business_search&utm_source=7CK4ybIEl13vojI6byrxTw", "review_count": 1801, "categories": [{"alias": "japanese", "title": "Japanese"}, {"alias": "sushi", "title": "Sushi Bars"}], "rating": 4.0, "coordinates": {"latitude": 41.89569, "longitude": -87.67172}, "transactions": ["delivery", "pickup"], "price": "$$", "location": {"address1": "1751 W Chicago Ave", "address2": null, "address3": "", "city": "Chicago", "zip_code": "60622", "country": "US", "state": "IL", "display_address": ["1751 W Chicago Ave", "Chicago, IL 60622"]}, "phone": "+13126664100", "display_phone": "(312) 666-4100", "distance": 1520.357753020543}, {"id": "ql34OG6XR7oKnpAV6Mi1nQ", "alias": "sai-cafe-chicago", "name": "Sai Cafe", "image_url": "https://s3-media3.fl.yelpcdn.com/bphoto/NYxulVVJ8ZlltYwZMWxPIg/o.jpg", "is_closed": false, "url": "https://www.yelp.com/biz/sai-cafe-chicago?adjust_creative=7CK4ybIEl13vojI6byrxTw&utm_campaign=yelp_api_v3&utm_medium=api_v3_business_search&utm_source=7CK4ybIEl13vojI6byrxTw", "review_count": 337, "categories": [{"alias": "sushi", "title": "Sushi Bars"}, {"alias": "japanese", "title": "Japanese"}, {"alias": "salad", "title": "Salad"}], "rating": 4.0, "coordinates": {"latitude": 41.9183686, "longitude": -87.6534449}, "transactions": ["delivery", "pickup"], "price": "$$", "location": {"address1": "2010 N Sheffield", "address2": "", "address3": "", "city": "Chicago", "zip_code": "60614", "country": "US", "state": "IL", "display_address": ["2010 N Sheffield", "Chicago, IL 60614"]}, "phone": "+17734728080", "display_phone": "(773) 472-8080", "distance": 3217.7836429706786}, {"id": "uE6iEvHozitCrUsHRsGKgA", "alias": "uni-sushi-chicago", "name": "Uni Sushi", "image_url": "https://s3-media3.fl.yelpcdn.com/bphoto/ywZPHGCTpdGl0XCw5G6K4g/o.jpg", "is_closed": false, "url": "https://www.yelp.com/biz/uni-sushi-chicago?adjust_creative=7CK4ybIEl13vojI6byrxTw&utm_campaign=yelp_api_v3&utm_medium=api_v3_business_search&utm_source=7CK4ybIEl13vojI6byrxTw", "review_count": 268, "categories": [{"alias": "japanese", "title": "Japanese"}, {"alias": "sushi", "title": "Sushi Bars"}], "rating": 4.0, "coordinates": {"latitude": 41.910764, "longitude": -87.672259}, "transactions": ["delivery", "pickup"], "price": "$$", "location": {"address1": "1752 W North Ave", "address2": null, "address3": "", "city": "Chicago", "zip_code": "60622", "country": "US", "state": "IL", "display_address": ["1752 W North Ave", "Chicago, IL 60622"]}, "phone": "+17732769899", "display_phone": "(773) 276-9899", "distance": 1450.4155572256789}, {"id": "05wrqW-ve_qDbNWryJc4lQ", "alias": "rice-cafe-chicago", "name": "Rice Cafe", "image_url": "https://s3-media1.fl.yelpcdn.com/bphoto/5NL6FIyFhyOdEPLU65ePow/o.jpg", "is_closed": false, "url": "https://www.yelp.com/biz/rice-cafe-chicago?adjust_creative=7CK4ybIEl13vojI6byrxTw&utm_campaign=yelp_api_v3&utm_medium=api_v3_business_search&utm_source=7CK4ybIEl13vojI6byrxTw", "review_count": 76, "categories": [{"alias": "sushi", "title": "Sushi Bars"}, {"alias": "japanese", "title": "Japanese"}, {"alias": "thai", "title": "Thai"}], "rating": 3.5, "coordinates": {"latitude": 41.92189, "longitude": -87.66429}, "transactions": ["delivery", "pickup"], "price": "$$", "location": {"address1": "2203 N Clybourn Ave", "address2": "", "address3": "", "city": "Chicago", "zip_code": "60614", "country": "US", "state": "IL", "display_address": ["2203 N Clybourn Ave", "Chicago, IL 60614"]}, "phone": "+17736616518", "display_phone": "(773) 661-6518", "distance": 2758.2287926925637}, {"id": "JGBCSFNa8Qgc5FSh7s0I3Q", "alias": "bill-kim-asian-comfort-food-chicago", "name": "Bill Kim Asian Comfort Food", "image_url": "https://s3-media3.fl.yelpcdn.com/bphoto/W5nsgYUBYYnDrfRTD_fJ7g/o.jpg", "is_closed": false, "url": "https://www.yelp.com/biz/bill-kim-asian-comfort-food-chicago?adjust_creative=7CK4ybIEl13vojI6byrxTw&utm_campaign=yelp_api_v3&utm_medium=api_v3_business_search&utm_source=7CK4ybIEl13vojI6byrxTw", "review_count": 10, "categories": [{"alias": "korean", "title": "Korean"}, {"alias": "asianfusion", "title": "Asian Fusion"}], "rating": 3.5, "coordinates": {"latitude": 41.88698, "longitude": -87.65064}, "transactions": [], "location": {"address1": "916 W Fulton Market", "address2": "", "address3": null, "city": "Chicago", "zip_code": "60607", "country": "US", "state": "IL", "display_address": ["916 W Fulton Market", "Chicago, IL 60607"]}, "phone": "", "display_phone": "", "distance": 3519.164164687868}, {"id": "ZuoKrKyW6zB6wlm06k8inw", "alias": "arami-chicago", "name": "ARAMI", "image_url": "https://s3-media1.fl.yelpcdn.com/bphoto/XJN1b42zZ6sHnhtrBJKcsg/o.jpg", "is_closed": false, "url": "https://www.yelp.com/biz/arami-chicago?adjust_creative=7CK4ybIEl13vojI6byrxTw&utm_campaign=yelp_api_v3&utm_medium=api_v3_business_search&utm_source=7CK4ybIEl13vojI6byrxTw", "review_count": 655, "categories": [{"alias": "sushi", "title": "Sushi Bars"}, {"alias": "japanese", "title": "Japanese"}], "rating": 4.0, "coordinates": {"latitude": 41.8960345011502, "longitude": -87.6733909357176}, "transactions": ["delivery", "pickup"], "price": "$$$", "location": {"address1": "1829 W Chicago Ave", "address2": "", "address3": "", "city": "Chicago", "zip_code": "60622", "country": "US", "state": "IL", "display_address": ["1829 W Chicago Ave", "Chicago, IL 60622"]}, "phone": "+13122431535", "display_phone": "(312) 243-1535", "distance": 1393.5271562794273}, {"id": "TqyssEJOYHG2tWCheOVWeQ", "alias": "ground-control-chicago", "name": "Ground Control", "image_url": "https://s3-media2.fl.yelpcdn.com/bphoto/SuNMcaqOfZiOWmGYno1VYA/o.jpg", "is_closed": false, "url": "https://www.yelp.com/biz/ground-control-chicago?adjust_creative=7CK4ybIEl13vojI6byrxTw&utm_campaign=yelp_api_v3&utm_medium=api_v3_business_search&utm_source=7CK4ybIEl13vojI6byrxTw", "review_count": 404, "categories": [{"alias": "vegetarian", "title": "Vegetarian"}, {"alias": "vegan", "title": "Vegan"}], "rating": 4.0, "coordinates": {"latitude": 41.9173377, "longitude": -87.7107789}, "transactions": ["delivery", "pickup"], "price": "$$", "location": {"address1": "3315 W Armitage Ave", "address2": "", "address3": "", "city": "Chicago", "zip_code": "60647", "country": "US", "state": "IL", "display_address": ["3315 W Armitage Ave", "Chicago, IL 60647"]}, "phone": "+17737729446", "display_phone": "(773) 772-9446", "distance": 2503.291409041838}, {"id": "XR847KX_gNoWOiD85Updow", "alias": "bon-bon-sandwiches-chicago", "name": "Bon Bon Sandwiches", "image_url": "https://s3-media3.fl.yelpcdn.com/bphoto/JF1k0YycccAPD9CqAJOD0w/o.jpg", "is_closed": false, "url": "https://www.yelp.com/biz/bon-bon-sandwiches-chicago?adjust_creative=7CK4ybIEl13vojI6byrxTw&utm_campaign=yelp_api_v3&utm_medium=api_v3_business_search&utm_source=7CK4ybIEl13vojI6byrxTw", "review_count": 562, "categories": [{"alias": "vietnamese", "title": "Vietnamese"}, {"alias": "sandwiches", "title": "Sandwiches"}, {"alias": "chicken_wings", "title": "Chicken Wings"}], "rating": 3.5, "coordinates": {"latitude": 41.91007, "longitude": -87.68621}, "transactions": ["delivery", "pickup"], "price": "$", "location": {"address1": "2333 W North Ave", "address2": "", "address3": "", "city": "Chicago", "zip_code": "60647", "country": "US", "state": "IL", "display_address": ["2333 W North Ave", "Chicago, IL 60647"]}, "phone": "+17732785800", "display_phone": "(773) 278-5800", "distance": 737.7975583090237}, {"id": "zYmfgb7QvbSbZ7_XoH3OKg", "alias": "saigon-sisters-chicago-2", "name": "Saigon Sisters", "image_url": "https://s3-media2.fl.yelpcdn.com/bphoto/jPpCMsJv4l6i4ZAyMR31Iw/o.jpg", "is_closed": false, "url": "https://www.yelp.com/biz/saigon-sisters-chicago-2?adjust_creative=7CK4ybIEl13vojI6byrxTw&utm_campaign=yelp_api_v3&utm_medium=api_v3_business_search&utm_source=7CK4ybIEl13vojI6byrxTw", "review_count": 527, "categories": [{"alias": "vietnamese", "title": "Vietnamese"}, {"alias": "thai", "title": "Thai"}, {"alias": "soup", "title": "Soup"}], "rating": 3.5, "coordinates": {"latitude": 41.88529, "longitude": -87.64234}, "transactions": ["delivery", "pickup"], "price": "$$", "location": {"address1": "567 W Lake St", "address2": "", "address3": "", "city": "Chicago", "zip_code": "60661", "country": "US", "state": "IL", "display_address": ["567 W Lake St", "Chicago, IL 60661"]}, "phone": "+13124960090", "display_phone": "(312) 496-0090", "distance": 4180.942485345084}, {"id": "r10ldT9WzzoJGkqKu1hDfw", "alias": "bloom-plant-based-kitchen-chicago", "name": "Bloom Plant Based Kitchen", "image_url": "https://s3-media1.fl.yelpcdn.com/bphoto/YWqeJY2nedrv9BpEvHOoeA/o.jpg", "is_closed": false, "url": "https://www.yelp.com/biz/bloom-plant-based-kitchen-chicago?adjust_creative=7CK4ybIEl13vojI6byrxTw&utm_campaign=yelp_api_v3&utm_medium=api_v3_business_search&utm_source=7CK4ybIEl13vojI6byrxTw", "review_count": 87, "categories": [{"alias": "vegan", "title": "Vegan"}, {"alias": "vegetarian", "title": "Vegetarian"}, {"alias": "gluten_free", "title": "Gluten-Free"}], "rating": 4.5, "coordinates": {"latitude": 41.90998, "longitude": -87.67631}, "transactions": [], "price": "$$", "location": {"address1": "1559 N Milwaukee Ave", "address2": null, "address3": "", "city": "Chicago", "zip_code": "60622", "country": "US", "state": "IL", "display_address": ["1559 N Milwaukee Ave", "Chicago, IL 60622"]}, "phone": "+13123633110", "display_phone": "(312) 363-3110", "distance": 1112.352420744694}, {"id": "J6MUpi2JJuL-5HDeJ7aHIg", "alias": "bang-chop-thai-kitchen-chicago", "name": "Bang Chop Thai Kitchen", "image_url": "https://s3-media3.fl.yelpcdn.com/bphoto/i0aidC7uMEiB6LQlY0NvJw/o.jpg", "is_closed": false, "url": "https://www.yelp.com/biz/bang-chop-thai-kitchen-chicago?adjust_creative=7CK4ybIEl13vojI6byrxTw&utm_campaign=yelp_api_v3&utm_medium=api_v3_business_search&utm_source=7CK4ybIEl13vojI6byrxTw", "review_count": 91, "categories": [{"alias": "thai", "title": "Thai"}, {"alias": "catering", "title": "Caterers"}, {"alias": "noodles", "title": "Noodles"}], "rating": 3.0, "coordinates": {"latitude": 41.8855651, "longitude": -87.6430695}, "transactions": ["delivery", "pickup"], "price": "$$", "location": {"address1": "605 West Lake St", "address2": "", "address3": "", "city": "Chicago", "zip_code": "60661", "country": "US", "state": "IL", "display_address": ["605 West Lake St", "Chicago, IL 60661"]}, "phone": "+13122852800", "display_phone": "(312) 285-2800", "distance": 4141.101486269906}, {"id": "Nn19Yw7BsQ_0ICRa56BKow", "alias": "new-china-chicago-2", "name": "New China", "image_url": "https://s3-media2.fl.yelpcdn.com/bphoto/D82H6QeZF1vrmfAUJjsQvA/o.jpg", "is_closed": false, "url": "https://www.yelp.com/biz/new-china-chicago-2?adjust_creative=7CK4ybIEl13vojI6byrxTw&utm_campaign=yelp_api_v3&utm_medium=api_v3_business_search&utm_source=7CK4ybIEl13vojI6byrxTw", "review_count": 113, "categories": [{"alias": "chinese", "title": "Chinese"}], "rating": 3.0, "coordinates": {"latitude": 41.9033088684082, "longitude": -87.6886215209961}, "transactions": ["delivery", "pickup"], "price": "$", "location": {"address1": "2438 W Division St", "address2": "", "address3": "", "city": "Chicago", "zip_code": "60622", "country": "US", "state": "IL", "display_address": ["2438 W Division St", "Chicago, IL 60622"]}, "phone": "+17733949188", "display_phone": "(773) 394-9188", "distance": 150.477917447809}, {"id": "jgepz7Cgf24gIy6tJsGSBA", "alias": "freaky-carrot-health-bar-chicago", "name": "Freaky Carrot Health Bar", "image_url": "https://s3-media1.fl.yelpcdn.com/bphoto/GJuedECCvUGqQ4NtI6g2rA/o.jpg", "is_closed": false, "url": "https://www.yelp.com/biz/freaky-carrot-health-bar-chicago?adjust_creative=7CK4ybIEl13vojI6byrxTw&utm_campaign=yelp_api_v3&utm_medium=api_v3_business_search&utm_source=7CK4ybIEl13vojI6byrxTw", "review_count": 1, "categories": [{"alias": "salad", "title": "Salad"}, {"alias": "juicebars", "title": "Juice Bars & Smoothies"}], "rating": 5.0, "coordinates": {"latitude": 41.887854, "longitude": -87.682427}, "transactions": ["delivery"], "location": {"address1": "324 N Leavitt St", "address2": null, "address3": "", "city": "Chicago", "zip_code": "60612", "country": "US", "state": "IL", "display_address": ["324 N Leavitt St", "Chicago, IL 60612"]}, "phone": "", "display_phone": "", "distance": 1784.6545743818917}, {"id": "O6uWHgJzylSjWjPSJKGhnQ", "alias": "sultans-market-chicago", "name": "Sultan's Market", "image_url": "https://s3-media4.fl.yelpcdn.com/bphoto/YIT4-lfCq4HrFWbZj_rCLQ/o.jpg", "is_closed": false, "url": "https://www.yelp.com/biz/sultans-market-chicago?adjust_creative=7CK4ybIEl13vojI6byrxTw&utm_campaign=yelp_api_v3&utm_medium=api_v3_business_search&utm_source=7CK4ybIEl13vojI6byrxTw", "review_count": 1350, "categories": [{"alias": "mideastern", "title": "Middle Eastern"}, {"alias": "vegetarian", "title": "Vegetarian"}, {"alias": "falafel", "title": "Falafel"}], "rating": 4.0, "coordinates": {"latitude": 41.9102951, "longitude": -87.6792215}, "transactions": ["delivery", "pickup"], "price": "$", "location": {"address1": "2057 W North Ave", "address2": "", "address3": "", "city": "Chicago", "zip_code": "60647", "country": "US", "state": "IL", "display_address": ["2057 W North Ave", "Chicago, IL 60647"]}, "phone": "+17732353072", "display_phone": "(773) 235-3072", "distance": 956.7600961375672}, {"id": "9g98FdAhBrxzMuTemWAVKg", "alias": "new-china-station-chicago", "name": "New China Station", "image_url": "https://s3-media4.fl.yelpcdn.com/bphoto/CVPfv8ktdBf_EiKlyzAdyA/o.jpg", "is_closed": false, "url": "https://www.yelp.com/biz/new-china-station-chicago?adjust_creative=7CK4ybIEl13vojI6byrxTw&utm_campaign=yelp_api_v3&utm_medium=api_v3_business_search&utm_source=7CK4ybIEl13vojI6byrxTw", "review_count": 142, "categories": [{"alias": "szechuan", "title": "Szechuan"}], "rating": 3.5, "coordinates": {"latitude": 41.9101039, "longitude": -87.6877506}, "transactions": ["delivery", "pickup"], "price": "$", "location": {"address1": "2411 W North Ave", "address2": "", "address3": "", "city": "Chicago", "zip_code": "60647", "country": "US", "state": "IL", "display_address": ["2411 W North Ave", "Chicago, IL 60647"]}, "phone": "+17732521023", "display_phone": "(773) 252-1023", "distance": 732.2530995355507}, {"id": "ffvh_whpqJKHDHiVzzDf8w", "alias": "rock-wrap-and-roll-chicago-5", "name": "Rock Wrap & Roll", "image_url": "https://s3-media1.fl.yelpcdn.com/bphoto/8DSUKfrZ0eaOzKtdmkfmXg/o.jpg", "is_closed": false, "url": "https://www.yelp.com/biz/rock-wrap-and-roll-chicago-5?adjust_creative=7CK4ybIEl13vojI6byrxTw&utm_campaign=yelp_api_v3&utm_medium=api_v3_business_search&utm_source=7CK4ybIEl13vojI6byrxTw", "review_count": 238, "categories": [{"alias": "thai", "title": "Thai"}, {"alias": "sushi", "title": "Sushi Bars"}], "rating": 4.0, "coordinates": {"latitude": 41.921382, "longitude": -87.66362}, "transactions": ["delivery", "pickup"], "price": "$$", "location": {"address1": "2187 N Clybourn Ave", "address2": "", "address3": "", "city": "Chicago", "zip_code": "60614", "country": "US", "state": "IL", "display_address": ["2187 N Clybourn Ave", "Chicago, IL 60614"]}, "phone": "+17734722800", "display_phone": "(773) 472-2800", "distance": 2762.2204482376155}, {"id": "LeA-eBkN7UMoFKuHRP_MyQ", "alias": "uptons-breakroom-chicago", "name": "Upton's Breakroom", "image_url": "https://s3-media3.fl.yelpcdn.com/bphoto/miq0pi65Y-_K_sJHTo2pTQ/o.jpg", "is_closed": false, "url": "https://www.yelp.com/biz/uptons-breakroom-chicago?adjust_creative=7CK4ybIEl13vojI6byrxTw&utm_campaign=yelp_api_v3&utm_medium=api_v3_business_search&utm_source=7CK4ybIEl13vojI6byrxTw", "review_count": 241, "categories": [{"alias": "vegan", "title": "Vegan"}], "rating": 4.5, "coordinates": {"latitude": 41.8908805274879, "longitude": -87.6793019379492}, "transactions": ["delivery", "pickup"], "price": "$$", "location": {"address1": "2054 W Grand Ave", "address2": "", "address3": "", "city": "Chicago", "zip_code": "60612", "country": "US", "state": "IL", "display_address": ["2054 W Grand Ave", "Chicago, IL 60612"]}, "phone": "+13128727838", "display_phone": "(312) 872-7838", "distance": 1541.7049198496975}, {"id": "k81iqznYFEJtmmx6incxsg", "alias": "tanuki-chicago", "name": "Tanuki", "image_url": "https://s3-media3.fl.yelpcdn.com/bphoto/WMJ19dtaBpiWbQz-fvSvfA/o.jpg", "is_closed": false, "url": "https://www.yelp.com/biz/tanuki-chicago?adjust_creative=7CK4ybIEl13vojI6byrxTw&utm_campaign=yelp_api_v3&utm_medium=api_v3_business_search&utm_source=7CK4ybIEl13vojI6byrxTw", "review_count": 323, "categories": [{"alias": "sushi", "title": "Sushi Bars"}, {"alias": "japanese", "title": "Japanese"}, {"alias": "asianfusion", "title": "Asian Fusion"}], "rating": 4.0, "coordinates": {"latitude": 41.9365467454796, "longitude": -87.6541511267339}, "transactions": ["delivery", "pickup"], "price": "$$", "location": {"address1": "3006 N Sheffield Ave", "address2": "", "address3": "", "city": "Chicago", "zip_code": "60657", "country": "US", "state": "IL", "display_address": ["3006 N Sheffield Ave", "Chicago, IL 60657"]}, "phone": "+17733601950", "display_phone": "(773) 360-1950", "distance": 4559.134164573452}, {"id": "kdAKEKXIqdpMxJ0MFPgTtQ", "alias": "sushi-para-m-chicago", "name": "Sushi Para M", "image_url": "https://s3-media2.fl.yelpcdn.com/bphoto/Q-rQ63Eq6pMV7fauytHfwg/o.jpg", "is_closed": false, "url": "https://www.yelp.com/biz/sushi-para-m-chicago?adjust_creative=7CK4ybIEl13vojI6byrxTw&utm_campaign=yelp_api_v3&utm_medium=api_v3_business_search&utm_source=7CK4ybIEl13vojI6byrxTw", "review_count": 464, "categories": [{"alias": "sushi", "title": "Sushi Bars"}], "rating": 3.0, "coordinates": {"latitude": 41.91127, "longitude": -87.6783899}, "transactions": ["delivery", "pickup"], "price": "$$", "location": {"address1": "1633 N Milwaukee Ave", "address2": "", "address3": "", "city": "Chicago", "zip_code": "60647", "country": "US", "state": "IL", "display_address": ["1633 N Milwaukee Ave", "Chicago, IL 60647"]}, "phone": "+17732526828", "display_phone": "(773) 252-6828", "distance": 1106.9511079071797}, {"id": "DDzT2AA047ZgyId-yf0pQg", "alias": "ml-kitchen-chicago-2", "name": "ML Kitchen", "image_url": "https://s3-media3.fl.yelpcdn.com/bphoto/HHICLzBa9UdgFHqQZJvtHA/o.jpg", "is_closed": false, "url": "https://www.yelp.com/biz/ml-kitchen-chicago-2?adjust_creative=7CK4ybIEl13vojI6byrxTw&utm_campaign=yelp_api_v3&utm_medium=api_v3_business_search&utm_source=7CK4ybIEl13vojI6byrxTw", "review_count": 193, "categories": [{"alias": "chinese", "title": "Chinese"}, {"alias": "asianfusion", "title": "Asian Fusion"}, {"alias": "chicken_wings", "title": "Chicken Wings"}], "rating": 4.0, "coordinates": {"latitude": 41.869543, "longitude": -87.655786}, "transactions": ["delivery", "pickup"], "price": "$$", "location": {"address1": "1138 W Taylor St", "address2": "", "address3": null, "city": "Chicago", "zip_code": "60607", "country": "US", "state": "IL", "display_address": ["1138 W Taylor St", "Chicago, IL 60607"]}, "phone": "+13126313793", "display_phone": "(312) 631-3793", "distance": 4573.694992214445}, {"id": "3QMf_Zi8ZpmAZ4QTbs3HjA", "alias": "dees-mandarin-and-sushi-lounge-chicago-2", "name": "Dee's Mandarin & Sushi Lounge", "image_url": "https://s3-media4.fl.yelpcdn.com/bphoto/pkMHoozx-1scIyXCeN6oCA/o.jpg", "is_closed": false, "url": "https://www.yelp.com/biz/dees-mandarin-and-sushi-lounge-chicago-2?adjust_creative=7CK4ybIEl13vojI6byrxTw&utm_campaign=yelp_api_v3&utm_medium=api_v3_business_search&utm_source=7CK4ybIEl13vojI6byrxTw", "review_count": 272, "categories": [{"alias": "chinese", "title": "Chinese"}, {"alias": "sushi", "title": "Sushi Bars"}], "rating": 4.0, "coordinates": {"latitude": 41.9183311462402, "longitude": -87.6560592651367}, "transactions": ["delivery", "pickup"], "price": "$$", "location": {"address1": "1114 W Armitage Ave", "address2": "", "address3": "", "city": "Chicago", "zip_code": "60614", "country": "US", "state": "IL", "display_address": ["1114 W Armitage Ave", "Chicago, IL 60614"]}, "phone": "+17734771500", "display_phone": "(773) 477-1500", "distance": 3021.5145528344865}, {"id": "nD9poL2XS2nnVOJXXMqbuA", "alias": "little-wok-chicago-2", "name": "Little Wok", "image_url": "https://s3-media3.fl.yelpcdn.com/bphoto/t44hUFk9XbwF6QSOV7Vh0w/o.jpg", "is_closed": false, "url": "https://www.yelp.com/biz/little-wok-chicago-2?adjust_creative=7CK4ybIEl13vojI6byrxTw&utm_campaign=yelp_api_v3&utm_medium=api_v3_business_search&utm_source=7CK4ybIEl13vojI6byrxTw", "review_count": 275, "categories": [{"alias": "chinese", "title": "Chinese"}, {"alias": "sushi", "title": "Sushi Bars"}, {"alias": "asianfusion", "title": "Asian Fusion"}], "rating": 4.0, "coordinates": {"latitude": 41.939, "longitude": -87.64465}, "transactions": ["delivery", "pickup"], "price": "$$", "location": {"address1": "3144 N Broadway", "address2": "", "address3": null, "city": "Chicago", "zip_code": "60657", "country": "US", "state": "IL", "display_address": ["3144 N Broadway", "Chicago, IL 60657"]}, "phone": "+17735258111", "display_phone": "(773) 525-8111", "distance": 5269.274058646662}, {"id": "rnDhDtI0MtYmWa9TSn0Ngw", "alias": "tsukiji-fish-market-chicago-5", "name": "Tsukiji Fish Market", "image_url": "https://s3-media3.fl.yelpcdn.com/bphoto/-fHelpKVTH19vjCNCF2JzQ/o.jpg", "is_closed": false, "url": "https://www.yelp.com/biz/tsukiji-fish-market-chicago-5?adjust_creative=7CK4ybIEl13vojI6byrxTw&utm_campaign=yelp_api_v3&utm_medium=api_v3_business_search&utm_source=7CK4ybIEl13vojI6byrxTw", "review_count": 208, "categories": [{"alias": "sushi", "title": "Sushi Bars"}, {"alias": "japanese", "title": "Japanese"}], "rating": 4.0, "coordinates": {"latitude": 41.8912826201498, "longitude": -87.6568758730593}, "transactions": ["delivery", "pickup"], "price": "$$", "location": {"address1": "1156 W Grand Ave", "address2": "", "address3": "", "city": "Chicago", "zip_code": "60642", "country": "US", "state": "IL", "display_address": ["1156 W Grand Ave", "Chicago, IL 60642"]}, "phone": "+13122431112", "display_phone": "(312) 243-1112", "distance": 2832.180321920814}, {"id": "gsI8b6vE33gZtMxt0cr19w", "alias": "home-chef-chicago-6", "name": "Home Chef", "image_url": "https://s3-media2.fl.yelpcdn.com/bphoto/FutbeY7xALbwC_p-Nl1jMw/o.jpg", "is_closed": false, "url": "https://www.yelp.com/biz/home-chef-chicago-6?adjust_creative=7CK4ybIEl13vojI6byrxTw&utm_campaign=yelp_api_v3&utm_medium=api_v3_business_search&utm_source=7CK4ybIEl13vojI6byrxTw", "review_count": 82, "categories": [{"alias": "fooddeliveryservices", "title": "Food Delivery Services"}], "rating": 2.5, "coordinates": {"latitude": 41.8754522, "longitude": -87.6388417}, "transactions": [], "location": {"address1": "433 W Van Buren St", "address2": "Ste 750N", "address3": null, "city": "Chicago", "zip_code": "60607", "country": "US", "state": "IL", "display_address": ["433 W Van Buren St", "Ste 750N", "Chicago, IL 60607"]}, "phone": "", "display_phone": "", "distance": 5056.0669376738415}, {"id": "2IQkl8UHBsHW4LQvLMBOYw", "alias": "golden-dragon-chicago-2", "name": "Golden Dragon", "image_url": "https://s3-media2.fl.yelpcdn.com/bphoto/xL0LS58-LGeN8O1ThS-46Q/o.jpg", "is_closed": false, "url": "https://www.yelp.com/biz/golden-dragon-chicago-2?adjust_creative=7CK4ybIEl13vojI6byrxTw&utm_campaign=yelp_api_v3&utm_medium=api_v3_business_search&utm_source=7CK4ybIEl13vojI6byrxTw", "review_count": 12, "categories": [{"alias": "chinese", "title": "Chinese"}, {"alias": "juicebars", "title": "Juice Bars & Smoothies"}, {"alias": "chicken_wings", "title": "Chicken Wings"}], "rating": 3.5, "coordinates": {"latitude": 41.880992, "longitude": -87.6886767894029}, "transactions": ["delivery", "pickup"], "location": {"address1": "2459 W Madison St", "address2": "", "address3": null, "city": "Chicago", "zip_code": "60612", "country": "US", "state": "IL", "display_address": ["2459 W Madison St", "Chicago, IL 60612"]}, "phone": "+13129294839", "display_phone": "(312) 929-4839", "distance": 2513.021697759334}, {"id": "RNsldUTu1LKKcRZYPw3gjA", "alias": "kapitan-chicago-2", "name": "Kapitan", "image_url": "https://s3-media2.fl.yelpcdn.com/bphoto/rYI5vJFcUJuWNCkdTd7fKg/o.jpg", "is_closed": false, "url": "https://www.yelp.com/biz/kapitan-chicago-2?adjust_creative=7CK4ybIEl13vojI6byrxTw&utm_campaign=yelp_api_v3&utm_medium=api_v3_business_search&utm_source=7CK4ybIEl13vojI6byrxTw", "review_count": 69, "categories": [{"alias": "asianfusion", "title": "Asian Fusion"}, {"alias": "malaysian", "title": "Malaysian"}, {"alias": "singaporean", "title": "Singaporean"}], "rating": 4.0, "coordinates": {"latitude": 41.92008, "longitude": -87.66261}, "transactions": ["delivery", "restaurant_reservation", "pickup"], "location": {"address1": "2142 N Clybourn Ave", "address2": null, "address3": "", "city": "Chicago", "zip_code": "60614", "country": "US", "state": "IL", "display_address": ["2142 N Clybourn Ave", "Chicago, IL 60614"]}, "phone": "+17736612281", "display_phone": "(773) 661-2281", "distance": 2720.751803301347}, {"id": "yPwyO9QMJz9K75jqBllJlw", "alias": "gorilla-sushi-logan-square-chicago", "name": "Gorilla Sushi Logan Square", "image_url": "https://s3-media2.fl.yelpcdn.com/bphoto/b3xI_WpYGcPo9Q-nJHpUGg/o.jpg", "is_closed": false, "url": "https://www.yelp.com/biz/gorilla-sushi-logan-square-chicago?adjust_creative=7CK4ybIEl13vojI6byrxTw&utm_campaign=yelp_api_v3&utm_medium=api_v3_business_search&utm_source=7CK4ybIEl13vojI6byrxTw", "review_count": 173, "categories": [{"alias": "sushi", "title": "Sushi Bars"}, {"alias": "seafood", "title": "Seafood"}], "rating": 3.5, "coordinates": {"latitude": 41.9309512, "longitude": -87.7102421}, "transactions": ["delivery", "pickup"], "price": "$", "location": {"address1": "2735 N Milwaukee Ave", "address2": "", "address3": null, "city": "Chicago", "zip_code": "60647", "country": "US", "state": "IL", "display_address": ["2735 N Milwaukee Ave", "Chicago, IL 60647"]}, "phone": "+17736665946", "display_phone": "(773) 666-5946", "distance": 3605.022003921102}, {"id": "lfc3kZ-PpBKBmNIRlLUMug", "alias": "im-vegan-chicago", "name": "IM Vegan", "image_url": "https://s3-media3.fl.yelpcdn.com/bphoto/o2GQKN6D68oeKjwr_jwK1Q/o.jpg", "is_closed": false, "url": "https://www.yelp.com/biz/im-vegan-chicago?adjust_creative=7CK4ybIEl13vojI6byrxTw&utm_campaign=yelp_api_v3&utm_medium=api_v3_business_search&utm_source=7CK4ybIEl13vojI6byrxTw", "review_count": 80, "categories": [{"alias": "vegan", "title": "Vegan"}, {"alias": "vegetarian", "title": "Vegetarian"}], "rating": 4.5, "coordinates": {"latitude": 41.934695, "longitude": -87.661354}, "transactions": ["delivery", "pickup"], "price": "$$", "location": {"address1": "2907 N Lincoln Ave", "address2": null, "address3": "", "city": "Chicago", "zip_code": "60657", "country": "US", "state": "IL", "display_address": ["2907 N Lincoln Ave", "Chicago, IL 60657"]}, "phone": "+17739048905", "display_phone": "(773) 904-8905", "distance": 4057.188877533644}, {"id": "YmjFqRAKsORKGTbtwvFW_A", "alias": "banh-mi-chicago-3", "name": "Banh Mi", "image_url": "https://s3-media4.fl.yelpcdn.com/bphoto/06G6RCforTnJkBV7CXCzog/o.jpg", "is_closed": false, "url": "https://www.yelp.com/biz/banh-mi-chicago-3?adjust_creative=7CK4ybIEl13vojI6byrxTw&utm_campaign=yelp_api_v3&utm_medium=api_v3_business_search&utm_source=7CK4ybIEl13vojI6byrxTw", "review_count": 332, "categories": [{"alias": "vietnamese", "title": "Vietnamese"}], "rating": 4.0, "coordinates": {"latitude": 41.94072, "longitude": -87.65107}, "transactions": ["delivery", "pickup"], "price": "$", "location": {"address1": "3227 N Clark St", "address2": null, "address3": "", "city": "Chicago", "zip_code": "60657", "country": "US", "state": "IL", "display_address": ["3227 N Clark St", "Chicago, IL 60657"]}, "phone": "+17738689988", "display_phone": "(773) 868-9988", "distance": 5081.595477850622}, {"id": "53vO16WIfHKL6uatCXvhtA", "alias": "sumu-tokyo-ramen-and-sushi-chicago-7", "name": "Sumu Tokyo Ramen & Sushi", "image_url": "https://s3-media3.fl.yelpcdn.com/bphoto/2Hq7lWMwd6rqY8gy43vyWg/o.jpg", "is_closed": false, "url": "https://www.yelp.com/biz/sumu-tokyo-ramen-and-sushi-chicago-7?adjust_creative=7CK4ybIEl13vojI6byrxTw&utm_campaign=yelp_api_v3&utm_medium=api_v3_business_search&utm_source=7CK4ybIEl13vojI6byrxTw", "review_count": 70, "categories": [{"alias": "ramen", "title": "Ramen"}, {"alias": "sushi", "title": "Sushi Bars"}, {"alias": "noodles", "title": "Noodles"}], "rating": 4.5, "coordinates": {"latitude": 41.881497, "longitude": -87.65554}, "transactions": ["delivery"], "price": "$$", "location": {"address1": "1131 W Madison St", "address2": null, "address3": "", "city": "Chicago", "zip_code": "60607", "country": "US", "state": "IL", "display_address": ["1131 W Madison St", "Chicago, IL 60607"]}, "phone": "+13129979988", "display_phone": "(312) 997-9988", "distance": 3567.9331737991897}, {"id": "42GuTKuEm7JbzWtRwv9JTQ", "alias": "juno-chicago-2", "name": "Juno", "image_url": "https://s3-media1.fl.yelpcdn.com/bphoto/40Urx4Yf7f0ue7c6D4_AHA/o.jpg", "is_closed": false, "url": "https://www.yelp.com/biz/juno-chicago-2?adjust_creative=7CK4ybIEl13vojI6byrxTw&utm_campaign=yelp_api_v3&utm_medium=api_v3_business_search&utm_source=7CK4ybIEl13vojI6byrxTw", "review_count": 435, "categories": [{"alias": "sushi", "title": "Sushi Bars"}, {"alias": "japanese", "title": "Japanese"}], "rating": 4.0, "coordinates": {"latitude": 41.9297369, "longitude": -87.6552049}, "transactions": [], "price": "$$$", "location": {"address1": "2638 N Lincoln Ave", "address2": "", "address3": "", "city": "Chicago", "zip_code": "60614", "country": "US", "state": "IL", "display_address": ["2638 N Lincoln Ave", "Chicago, IL 60614"]}, "phone": "+17739352000", "display_phone": "(773) 935-2000", "distance": 3916.529728234159}, {"id": "mlhHPnHmjO2_ypcP5Vc9Zw", "alias": "coast-sushi-bar-chicago", "name": "Coast Sushi Bar", "image_url": "https://s3-media2.fl.yelpcdn.com/bphoto/5sI9CEBA6fuBaNzv0KCMFw/o.jpg", "is_closed": false, "url": "https://www.yelp.com/biz/coast-sushi-bar-chicago?adjust_creative=7CK4ybIEl13vojI6byrxTw&utm_campaign=yelp_api_v3&utm_medium=api_v3_business_search&utm_source=7CK4ybIEl13vojI6byrxTw", "review_count": 1157, "categories": [{"alias": "sushi", "title": "Sushi Bars"}], "rating": 4.0, "coordinates": {"latitude": 41.91904, "longitude": -87.67753}, "transactions": ["delivery", "pickup"], "price": "$$", "location": {"address1": "2045 N Damen Ave", "address2": "", "address3": "", "city": "Chicago", "zip_code": "60647", "country": "US", "state": "IL", "display_address": ["2045 N Damen Ave", "Chicago, IL 60647"]}, "phone": "+17732355775", "display_phone": "(773) 235-5775", "distance": 1887.4403947528665}, {"id": "L7OoIKseZ8_zE8yMAewdEQ", "alias": "mammoth-poke-chicago", "name": "Mammoth Poke", "image_url": "https://s3-media1.fl.yelpcdn.com/bphoto/owW3o2l4tuP5E64HrQ7czg/o.jpg", "is_closed": false, "url": "https://www.yelp.com/biz/mammoth-poke-chicago?adjust_creative=7CK4ybIEl13vojI6byrxTw&utm_campaign=yelp_api_v3&utm_medium=api_v3_business_search&utm_source=7CK4ybIEl13vojI6byrxTw", "review_count": 45, "categories": [{"alias": "poke", "title": "Poke"}, {"alias": "sushi", "title": "Sushi Bars"}, {"alias": "salad", "title": "Salad"}], "rating": 5.0, "coordinates": {"latitude": 41.91867139809604, "longitude": -87.68721000063265}, "transactions": ["delivery"], "price": "$$", "location": {"address1": "2035 N Western Ave", "address2": null, "address3": "", "city": "Chicago", "zip_code": "60647", "country": "US", "state": "IL", "display_address": ["2035 N Western Ave", "Chicago, IL 60647"]}, "phone": "+13125162456", "display_phone": "(312) 516-2456", "distance": 1681.4657833278077}, {"id": "sANd5ATO2rMyu4r1n-UpAw", "alias": "piko-street-kitchen-chicago-2", "name": "Piko Street Kitchen", "image_url": "https://s3-media2.fl.yelpcdn.com/bphoto/zkeK5NF1vcUFxzX3Xsb1CQ/o.jpg", "is_closed": false, "url": "https://www.yelp.com/biz/piko-street-kitchen-chicago-2?adjust_creative=7CK4ybIEl13vojI6byrxTw&utm_campaign=yelp_api_v3&utm_medium=api_v3_business_search&utm_source=7CK4ybIEl13vojI6byrxTw", "review_count": 75, "categories": [{"alias": "asianfusion", "title": "Asian Fusion"}, {"alias": "foodtrucks", "title": "Food Trucks"}], "rating": 4.0, "coordinates": {"latitude": 41.8832451, "longitude": -87.654196}, "transactions": ["delivery"], "price": "$", "location": {"address1": "111 N Aberdeen St", "address2": null, "address3": null, "city": "Chicago", "zip_code": "60607", "country": "US", "state": "IL", "display_address": ["111 N Aberdeen St", "Chicago, IL 60607"]}, "phone": "+17738093312", "display_phone": "(773) 809-3312", "distance": 3508.06423056872}, {"id": "G1JrlwShWkG05T2J5dM94w", "alias": "goddess-and-grocer-chicago-6", "name": "Goddess and Grocer", "image_url": "https://s3-media4.fl.yelpcdn.com/bphoto/9s0cclTP4t_My-rkaIkLHQ/o.jpg", "is_closed": false, "url": "https://www.yelp.com/biz/goddess-and-grocer-chicago-6?adjust_creative=7CK4ybIEl13vojI6byrxTw&utm_campaign=yelp_api_v3&utm_medium=api_v3_business_search&utm_source=7CK4ybIEl13vojI6byrxTw", "review_count": 538, "categories": [{"alias": "catering", "title": "Caterers"}, {"alias": "salad", "title": "Salad"}, {"alias": "delis", "title": "Delis"}], "rating": 3.5, "coordinates": {"latitude": 41.91192, "longitude": -87.67714}, "transactions": ["delivery", "pickup"], "price": "$$", "location": {"address1": "1649 N Damen Ave", "address2": "", "address3": "", "city": "Chicago", "zip_code": "60647", "country": "US", "state": "IL", "display_address": ["1649 N Damen Ave", "Chicago, IL 60647"]}, "phone": "+17733423200", "display_phone": "(773) 342-3200", "distance": 1222.005555526087}, {"id": "Cjwb5-hyh9peFsRBLGqnuA", "alias": "spicy-fingers-seafood-kitchen-chicago", "name": "SPICY FINGERS  Seafood Kitchen", "image_url": "https://s3-media3.fl.yelpcdn.com/bphoto/2rJdTMpc0pNId__yD9yuSQ/o.jpg", "is_closed": false, "url": "https://www.yelp.com/biz/spicy-fingers-seafood-kitchen-chicago?adjust_creative=7CK4ybIEl13vojI6byrxTw&utm_campaign=yelp_api_v3&utm_medium=api_v3_business_search&utm_source=7CK4ybIEl13vojI6byrxTw", "review_count": 75, "categories": [{"alias": "seafood", "title": "Seafood"}, {"alias": "cajun", "title": "Cajun/Creole"}, {"alias": "asianfusion", "title": "Asian Fusion"}], "rating": 4.5, "coordinates": {"latitude": 41.89579, "longitude": -87.6668}, "transactions": ["delivery", "pickup"], "location": {"address1": "1549 W Chicago Ave", "address2": null, "address3": "", "city": "Chicago", "zip_code": "60642", "country": "US", "state": "IL", "display_address": ["1549 W Chicago Ave", "Chicago, IL 60642"]}, "phone": "+13128388868", "display_phone": "(312) 838-8868", "distance": 1875.9517758166412}, {"id": "U1rIQZjhaoKjnpUsAwdZog", "alias": "camile-thai-chicago-9", "name": "Camile Thai", "image_url": "https://s3-media2.fl.yelpcdn.com/bphoto/tVPymxh_pFr5ToAkqMKhyw/o.jpg", "is_closed": false, "url": "https://www.yelp.com/biz/camile-thai-chicago-9?adjust_creative=7CK4ybIEl13vojI6byrxTw&utm_campaign=yelp_api_v3&utm_medium=api_v3_business_search&utm_source=7CK4ybIEl13vojI6byrxTw", "review_count": 1, "categories": [{"alias": "thai", "title": "Thai"}], "rating": 5.0, "coordinates": {"latitude": 41.89742311575517, "longitude": -87.63855432480443}, "transactions": [], "location": {"address1": "831 N Sedgwick St", "address2": null, "address3": null, "city": "Chicago", "zip_code": "60610", "country": "US", "state": "IL", "display_address": ["831 N Sedgwick St", "Chicago, IL 60610"]}, "phone": "+13128588088", "display_phone": "(312) 858-8088", "distance": 4055.826021133867}, {"id": "pNuDH4Fe7-zmBnVJEfrhTQ", "alias": "jian-chicago", "name": "JIAN", "image_url": "https://s3-media4.fl.yelpcdn.com/bphoto/jqehFCRO4GunXzzgdHFqcg/o.jpg", "is_closed": false, "url": "https://www.yelp.com/biz/jian-chicago?adjust_creative=7CK4ybIEl13vojI6byrxTw&utm_campaign=yelp_api_v3&utm_medium=api_v3_business_search&utm_source=7CK4ybIEl13vojI6byrxTw", "review_count": 54, "categories": [{"alias": "chinese", "title": "Chinese"}], "rating": 4.5, "coordinates": {"latitude": 41.884095, "longitude": -87.640859}, "transactions": ["pickup", "delivery"], "location": {"address1": "131 N Clinton Street", "address2": "", "address3": "", "city": "Chicago", "zip_code": "60602", "country": "US", "state": "IL", "display_address": ["131 N Clinton Street", "Chicago, IL 60602"]}, "phone": "+13129666810", "display_phone": "(312) 966-6810", "distance": 4376.052920970554}, {"id": "I4MV_eM__diXr-hvI6VLBA", "alias": "see-thru-chinese-kitchen-chicago-12", "name": "See Thru Chinese Kitchen", "image_url": "https://s3-media2.fl.yelpcdn.com/bphoto/LmApfK4ImIoDozoWni8Lrg/o.jpg", "is_closed": false, "url": "https://www.yelp.com/biz/see-thru-chinese-kitchen-chicago-12?adjust_creative=7CK4ybIEl13vojI6byrxTw&utm_campaign=yelp_api_v3&utm_medium=api_v3_business_search&utm_source=7CK4ybIEl13vojI6byrxTw", "review_count": 71, "categories": [{"alias": "chinese", "title": "Chinese"}], "rating": 2.5, "coordinates": {"latitude": 41.866492, "longitude": -87.6687}, "transactions": ["pickup", "delivery"], "price": "$$", "location": {"address1": "1651 W Roosevelt Rd", "address2": "", "address3": "", "city": "Chicago", "zip_code": "60608", "country": "US", "state": "IL", "display_address": ["1651 W Roosevelt Rd", "Chicago, IL 60608"]}, "phone": "+13127333888", "display_phone": "(312) 733-3888", "distance": 4386.596265492516}, {"id": "26VDxo-xo2dT_hSTLQOLjw", "alias": "blue-sushi-sake-grill-chicago", "name": "Blue Sushi Sake Grill", "image_url": "https://s3-media3.fl.yelpcdn.com/bphoto/rl9dATCm6R12Zfy818-7yA/o.jpg", "is_closed": false, "url": "https://www.yelp.com/biz/blue-sushi-sake-grill-chicago?adjust_creative=7CK4ybIEl13vojI6byrxTw&utm_campaign=yelp_api_v3&utm_medium=api_v3_business_search&utm_source=7CK4ybIEl13vojI6byrxTw", "review_count": 68, "categories": [{"alias": "sushi", "title": "Sushi Bars"}], "rating": 4.5, "coordinates": {"latitude": 41.9247053, "longitude": -87.64746821608556}, "transactions": [], "price": "$$", "location": {"address1": "2351 N Lincoln Ave", "address2": "Ste A1-120", "address3": "", "city": "Chicago", "zip_code": "60614", "country": "US", "state": "IL", "display_address": ["2351 N Lincoln Ave", "Ste A1-120", "Chicago, IL 60614"]}, "phone": "+17732417111", "display_phone": "(773) 241-7111", "distance": 4019.7603239480186}, {"id": "dGNzu9rCeMpM6SLrPzk7_Q", "alias": "sushi-o-sushi-chicago", "name": "Sushi O Sushi", "image_url": "https://s3-media1.fl.yelpcdn.com/bphoto/hbBPWEuyA0ncSZ5IdFX-1A/o.jpg", "is_closed": false, "url": "https://www.yelp.com/biz/sushi-o-sushi-chicago?adjust_creative=7CK4ybIEl13vojI6byrxTw&utm_campaign=yelp_api_v3&utm_medium=api_v3_business_search&utm_source=7CK4ybIEl13vojI6byrxTw", "review_count": 251, "categories": [{"alias": "japanese", "title": "Japanese"}, {"alias": "sushi", "title": "Sushi Bars"}], "rating": 4.0, "coordinates": {"latitude": 41.9186, "longitude": -87.63821}, "transactions": ["pickup", "delivery"], "price": "$$", "location": {"address1": "346 W Armitage Ave", "address2": "", "address3": "", "city": "Chicago", "zip_code": "60614", "country": "US", "state": "IL", "display_address": ["346 W Armitage Ave", "Chicago, IL 60614"]}, "phone": "+17738714777", "display_phone": "(773) 871-4777", "distance": 4361.972635135713}, {"id": "o2sx9mzkd8Umc-6yagT3tg", "alias": "green-tea-japanese-chicago-2", "name": "Green Tea Japanese", "image_url": "https://s3-media4.fl.yelpcdn.com/bphoto/T3NJvlWbO-LzGv0tv5P85A/o.jpg", "is_closed": false, "url": "https://www.yelp.com/biz/green-tea-japanese-chicago-2?adjust_creative=7CK4ybIEl13vojI6byrxTw&utm_campaign=yelp_api_v3&utm_medium=api_v3_business_search&utm_source=7CK4ybIEl13vojI6byrxTw", "review_count": 377, "categories": [{"alias": "japanese", "title": "Japanese"}, {"alias": "sushi", "title": "Sushi Bars"}], "rating": 4.0, "coordinates": {"latitude": 41.9223934, "longitude": -87.6387248}, "transactions": ["pickup", "delivery"], "price": "$$", "location": {"address1": "2206 N Clark St", "address2": "", "address3": "", "city": "Chicago", "zip_code": "60614", "country": "US", "state": "IL", "display_address": ["2206 N Clark St", "Chicago, IL 60614"]}, "phone": "+17738838812", "display_phone": "(773) 883-8812", "distance": 4495.821923875562}, {"id": "_aDftia5RSSBpDLHatEfFg", "alias": "nori-sushi-bar-lakeview-chicago", "name": "Nori Sushi Bar - Lakeview", "image_url": "https://s3-media2.fl.yelpcdn.com/bphoto/PeLyG_fLDq31FJgNPrtVBA/o.jpg", "is_closed": false, "url": "https://www.yelp.com/biz/nori-sushi-bar-lakeview-chicago?adjust_creative=7CK4ybIEl13vojI6byrxTw&utm_campaign=yelp_api_v3&utm_medium=api_v3_business_search&utm_source=7CK4ybIEl13vojI6byrxTw", "review_count": 526, "categories": [{"alias": "sushi", "title": "Sushi Bars"}, {"alias": "japanese", "title": "Japanese"}, {"alias": "asianfusion", "title": "Asian Fusion"}], "rating": 4.0, "coordinates": {"latitude": 41.932718, "longitude": -87.653535}, "transactions": ["pickup", "delivery"], "price": "$$", "location": {"address1": "954 W Diversey Pkwy", "address2": "", "address3": "", "city": "Chicago", "zip_code": "60614", "country": "US", "state": "IL", "display_address": ["954 W Diversey Pkwy", "Chicago, IL 60614"]}, "phone": "+17739041000", "display_phone": "(773) 904-1000", "distance": 4256.99506489083}, {"id": "hcmuNUGQ9-gN3UCXQAvmQw", "alias": "fancy-plants-kitchen-chicago", "name": "Fancy Plants Kitchen", "image_url": "https://s3-media2.fl.yelpcdn.com/bphoto/5wmfLeanoqv0lj1fHLAMCw/o.jpg", "is_closed": false, "url": "https://www.yelp.com/biz/fancy-plants-kitchen-chicago?adjust_creative=7CK4ybIEl13vojI6byrxTw&utm_campaign=yelp_api_v3&utm_medium=api_v3_business_search&utm_source=7CK4ybIEl13vojI6byrxTw", "review_count": 26, "categories": [{"alias": "vegan", "title": "Vegan"}], "rating": 4.5, "coordinates": {"latitude": 41.92509778074403, "longitude": -87.66494141766435}, "transactions": ["pickup", "delivery"], "location": {"address1": "1443 W Fullerton Ave", "address2": "", "address3": null, "city": "Chicago", "zip_code": "60614", "country": "US", "state": "IL", "display_address": ["1443 W Fullerton Ave", "Chicago, IL 60614"]}, "phone": "+17738570486", "display_phone": "(773) 857-0486", "distance": 3005.009808731674}, {"id": "hg7GTftFbQG2Y6jz8u_Olg", "alias": "b-i-tea-and-dim-sum-chicago", "name": "B.I.Tea & Dim Sum", "image_url": "https://s3-media2.fl.yelpcdn.com/bphoto/PTDM60BSaUSc2AER_1253Q/o.jpg", "is_closed": false, "url": "https://www.yelp.com/biz/b-i-tea-and-dim-sum-chicago?adjust_creative=7CK4ybIEl13vojI6byrxTw&utm_campaign=yelp_api_v3&utm_medium=api_v3_business_search&utm_source=7CK4ybIEl13vojI6byrxTw", "review_count": 86, "categories": [{"alias": "bubbletea", "title": "Bubble Tea"}, {"alias": "dimsum", "title": "Dim Sum"}], "rating": 4.0, "coordinates": {"latitude": 41.8839695, "longitude": -87.6410747}, "transactions": ["pickup", "delivery"], "price": "$", "location": {"address1": "131 N Clinton St", "address2": "", "address3": "Chicago French Market", "city": "Chicago", "zip_code": "60661", "country": "US", "state": "IL", "display_address": ["131 N Clinton St", "Chicago French Market", "Chicago, IL 60661"]}, "phone": "+13129645195", "display_phone": "(312) 964-5195", "distance": 4376.052920970554}, {"id": "Fqmde28Bc3wV_nYL6RT8Zg", "alias": "mos-asian-bistro-chicago", "name": "Mo's Asian Bistro", "image_url": "https://s3-media2.fl.yelpcdn.com/bphoto/RDEQdKV60496nNLvBdZhtQ/o.jpg", "is_closed": false, "url": "https://www.yelp.com/biz/mos-asian-bistro-chicago?adjust_creative=7CK4ybIEl13vojI6byrxTw&utm_campaign=yelp_api_v3&utm_medium=api_v3_business_search&utm_source=7CK4ybIEl13vojI6byrxTw", "review_count": 195, "categories": [{"alias": "chinese", "title": "Chinese"}, {"alias": "sushi", "title": "Sushi Bars"}], "rating": 3.5, "coordinates": {"latitude": 41.924934, "longitude": -87.6625598}, "transactions": ["pickup", "delivery"], "price": "$$", "location": {"address1": "1353 W Fullerton Ave", "address2": null, "address3": "", "city": "Chicago", "zip_code": "60614", "country": "US", "state": "IL", "display_address": ["1353 W Fullerton Ave", "Chicago, IL 60614"]}, "phone": "+17732481758", "display_phone": "(773) 248-1758", "distance": 3113.9873370887626}, {"id": "pH_ESdmBXuxDogaUsx7EVw", "alias": "viet-nom-nom-the-hatchery-chicago", "name": "Viet Nom Nom - The Hatchery", "image_url": "https://s3-media1.fl.yelpcdn.com/bphoto/eJXXQOXyWpyG7SWPffr5ng/o.jpg", "is_closed": false, "url": "https://www.yelp.com/biz/viet-nom-nom-the-hatchery-chicago?adjust_creative=7CK4ybIEl13vojI6byrxTw&utm_campaign=yelp_api_v3&utm_medium=api_v3_business_search&utm_source=7CK4ybIEl13vojI6byrxTw", "review_count": 1, "categories": [{"alias": "vietnamese", "title": "Vietnamese"}], "rating": 4.0, "coordinates": {"latitude": 41.88394, "longitude": -87.70396}, "transactions": ["pickup", "delivery"], "location": {"address1": "3103 W Lake St", "address2": null, "address3": "", "city": "Chicago", "zip_code": "60612", "country": "US", "state": "IL", "display_address": ["3103 W Lake St", "Chicago, IL 60612"]}, "phone": "+13125361257", "display_phone": "(312) 536-1257", "distance": 2586.2979634297235}, {"id": "nEVME0CyJZ2jbXTClx_aFw", "alias": "sushi-para-ii-chicago", "name": "Sushi Para II", "image_url": "https://s3-media3.fl.yelpcdn.com/bphoto/p-LXKGFXcZb-umvQf1gw7A/o.jpg", "is_closed": false, "url": "https://www.yelp.com/biz/sushi-para-ii-chicago?adjust_creative=7CK4ybIEl13vojI6byrxTw&utm_campaign=yelp_api_v3&utm_medium=api_v3_business_search&utm_source=7CK4ybIEl13vojI6byrxTw", "review_count": 850, "categories": [{"alias": "sushi", "title": "Sushi Bars"}], "rating": 3.5, "coordinates": {"latitude": 41.923482, "longitude": -87.63937}, "transactions": ["pickup", "delivery"], "price": "$$", "location": {"address1": "2258 N Clark St", "address2": "", "address3": "", "city": "Chicago", "zip_code": "60614", "country": "US", "state": "IL", "display_address": ["2258 N Clark St", "Chicago, IL 60614"]}, "phone": "+17734773219", "display_phone": "(773) 477-3219", "distance": 4511.651854401369}, {"id": "AKngvU-VIsVwM8A-PW3utw", "alias": "kizami-sushi-chicago-2", "name": "Kizami Sushi", "image_url": "https://s3-media4.fl.yelpcdn.com/bphoto/SEL3P4VC3uMXovs-OxKIQw/o.jpg", "is_closed": false, "url": "https://www.yelp.com/biz/kizami-sushi-chicago-2?adjust_creative=7CK4ybIEl13vojI6byrxTw&utm_campaign=yelp_api_v3&utm_medium=api_v3_business_search&utm_source=7CK4ybIEl13vojI6byrxTw", "review_count": 89, "categories": [{"alias": "sushi", "title": "Sushi Bars"}, {"alias": "japanese", "title": "Japanese"}, {"alias": "wine_bars", "title": "Wine Bars"}], "rating": 4.5, "coordinates": {"latitude": 41.92297, "longitude": -87.64479}, "transactions": ["pickup", "delivery"], "price": "$$", "location": {"address1": "2235 N Lincoln Ave", "address2": null, "address3": "", "city": "Chicago", "zip_code": "60614", "country": "US", "state": "IL", "display_address": ["2235 N Lincoln Ave", "Chicago, IL 60614"]}, "phone": "+17736978906", "display_phone": "(773) 697-8906", "distance": 4094.42254140785}, {"id": "FGNKtLYZphTlIjlMGPMuTA", "alias": "momotaro-chicago-3", "name": "Momotaro", "image_url": "https://s3-media3.fl.yelpcdn.com/bphoto/tsQPfciakhSA2rrUxs_Juw/o.jpg", "is_closed": false, "url": "https://www.yelp.com/biz/momotaro-chicago-3?adjust_creative=7CK4ybIEl13vojI6byrxTw&utm_campaign=yelp_api_v3&utm_medium=api_v3_business_search&utm_source=7CK4ybIEl13vojI6byrxTw", "review_count": 1118, "categories": [{"alias": "sushi", "title": "Sushi Bars"}, {"alias": "japanese", "title": "Japanese"}, {"alias": "noodles", "title": "Noodles"}], "rating": 4.0, "coordinates": {"latitude": 41.88602973139042, "longitude": -87.64845}, "transactions": ["pickup", "delivery"], "price": "$$$", "location": {"address1": "820 W Lake St", "address2": "", "address3": "", "city": "Chicago", "zip_code": "60607", "country": "US", "state": "IL", "display_address": ["820 W Lake St", "Chicago, IL 60607"]}, "phone": "+13127334818", "display_phone": "(312) 733-4818", "distance": 3728.9454502105696}, {"id": "AE_PCkL3_D6Q3vPdudb_vg", "alias": "bamboo-garden-chicago", "name": "Bamboo Garden", "image_url": "https://s3-media3.fl.yelpcdn.com/bphoto/AxoLlAFUWjzNWq-qhUFNgQ/o.jpg", "is_closed": false, "url": "https://www.yelp.com/biz/bamboo-garden-chicago?adjust_creative=7CK4ybIEl13vojI6byrxTw&utm_campaign=yelp_api_v3&utm_medium=api_v3_business_search&utm_source=7CK4ybIEl13vojI6byrxTw", "review_count": 177, "categories": [{"alias": "chinese", "title": "Chinese"}], "rating": 3.5, "coordinates": {"latitude": 41.9401499, "longitude": -87.650616}, "transactions": ["pickup", "delivery"], "price": "$", "location": {"address1": "3203 N Clark St", "address2": "", "address3": "", "city": "Chicago", "zip_code": "60657", "country": "US", "state": "IL", "display_address": ["3203 N Clark St", "Chicago, IL 60657"]}, "phone": "+17732819000", "display_phone": "(773) 281-9000", "distance": 5057.467667897165}, {"id": "AdX6QOhzlhoHehzDlZAUyA", "alias": "raw-ii-chicago-2", "name": "Raw II", "image_url": "https://s3-media2.fl.yelpcdn.com/bphoto/3sQRT6a-fN7CQmwWrhgoOA/o.jpg", "is_closed": false, "url": "https://www.yelp.com/biz/raw-ii-chicago-2?adjust_creative=7CK4ybIEl13vojI6byrxTw&utm_campaign=yelp_api_v3&utm_medium=api_v3_business_search&utm_source=7CK4ybIEl13vojI6byrxTw", "review_count": 28, "categories": [{"alias": "thai", "title": "Thai"}, {"alias": "sushi", "title": "Sushi Bars"}, {"alias": "poke", "title": "Poke"}], "rating": 4.0, "coordinates": {"latitude": 41.92189, "longitude": -87.66429}, "transactions": ["pickup", "delivery"], "price": "$$", "location": {"address1": "2203 N Clybourn Ave", "address2": "", "address3": null, "city": "Chicago", "zip_code": "60614", "country": "US", "state": "IL", "display_address": ["2203 N Clybourn Ave", "Chicago, IL 60614"]}, "phone": "+17736879887", "display_phone": "(773) 687-9887", "distance": 2758.3189964513654}, {"id": "jyZzUq4ZSOYYOxoHcnmkLw", "alias": "world-wings-chicago", "name": "World wings", "image_url": "https://s3-media3.fl.yelpcdn.com/bphoto/Al7XA9Z1eH-YlSCU_u3iRg/o.jpg", "is_closed": false, "url": "https://www.yelp.com/biz/world-wings-chicago?adjust_creative=7CK4ybIEl13vojI6byrxTw&utm_campaign=yelp_api_v3&utm_medium=api_v3_business_search&utm_source=7CK4ybIEl13vojI6byrxTw", "review_count": 1, "categories": [{"alias": "chicken_wings", "title": "Chicken Wings"}, {"alias": "fooddeliveryservices", "title": "Food Delivery Services"}, {"alias": "tradamerican", "title": "American (Traditional)"}], "rating": 5.0, "coordinates": {"latitude": 41.89573, "longitude": -87.64965}, "transactions": ["pickup", "delivery"], "location": {"address1": "850 W Superior St", "address2": null, "address3": "", "city": "Chicago", "zip_code": "60642", "country": "US", "state": "IL", "display_address": ["850 W Superior St", "Chicago, IL 60642"]}, "phone": "+18477541497", "display_phone": "(847) 754-1497", "distance": 3200.033193951537}, {"id": "1g52-6WzlhjIOpNAsBjPJg", "alias": "sushi-x-chicago", "name": "Sushi X", "image_url": "https://s3-media3.fl.yelpcdn.com/bphoto/-7oquHcAiB0P3d2XIXkC6A/o.jpg", "is_closed": false, "url": "https://www.yelp.com/biz/sushi-x-chicago?adjust_creative=7CK4ybIEl13vojI6byrxTw&utm_campaign=yelp_api_v3&utm_medium=api_v3_business_search&utm_source=7CK4ybIEl13vojI6byrxTw", "review_count": 514, "categories": [{"alias": "japanese", "title": "Japanese"}, {"alias": "salad", "title": "Salad"}, {"alias": "asianfusion", "title": "Asian Fusion"}], "rating": 4.0, "coordinates": {"latitude": 41.896411895752, "longitude": -87.6566467285156}, "transactions": ["pickup", "delivery"], "price": "$$", "location": {"address1": "1136 W Chicago Ave", "address2": "", "address3": "", "city": "Chicago", "zip_code": "60642", "country": "US", "state": "IL", "display_address": ["1136 W Chicago Ave", "Chicago, IL 60642"]}, "phone": "+13124919232", "display_phone": "(312) 491-9232", "distance": 2625.049282706673}, {"id": "r732n4Oq1YO02K58fcR-Yg", "alias": "sushi-dokku-chicago-3", "name": "Sushi Dokku", "image_url": "https://s3-media3.fl.yelpcdn.com/bphoto/A5tIBhKIqyk9UVWWckCHHQ/o.jpg", "is_closed": false, "url": "https://www.yelp.com/biz/sushi-dokku-chicago-3?adjust_creative=7CK4ybIEl13vojI6byrxTw&utm_campaign=yelp_api_v3&utm_medium=api_v3_business_search&utm_source=7CK4ybIEl13vojI6byrxTw", "review_count": 515, "categories": [{"alias": "sushi", "title": "Sushi Bars"}, {"alias": "japanese", "title": "Japanese"}, {"alias": "cocktailbars", "title": "Cocktail Bars"}], "rating": 4.0, "coordinates": {"latitude": 41.8841513653687, "longitude": -87.6484478840348}, "transactions": ["pickup", "delivery"], "price": "$$", "location": {"address1": "823 W Randolph St", "address2": null, "address3": "", "city": "Chicago", "zip_code": "60607", "country": "US", "state": "IL", "display_address": ["823 W Randolph St", "Chicago, IL 60607"]}, "phone": "+13124558238", "display_phone": "(312) 455-8238", "distance": 3842.389559564259}, {"id": "SSgf0ypeC1rm2qPeHY_IIQ", "alias": "gorilla-sushi-diversey-chicago", "name": "Gorilla Sushi Diversey", "image_url": "https://s3-media4.fl.yelpcdn.com/bphoto/KYPy7ut2DScmkRCmXvIiig/o.jpg", "is_closed": false, "url": "https://www.yelp.com/biz/gorilla-sushi-diversey-chicago?adjust_creative=7CK4ybIEl13vojI6byrxTw&utm_campaign=yelp_api_v3&utm_medium=api_v3_business_search&utm_source=7CK4ybIEl13vojI6byrxTw", "review_count": 99, "categories": [{"alias": "sushi", "title": "Sushi Bars"}], "rating": 3.5, "coordinates": {"latitude": 41.9326149243917, "longitude": -87.6640642589015}, "transactions": ["pickup", "delivery"], "price": "$", "location": {"address1": "1408 W Diversey Pkwy", "address2": "", "address3": "", "city": "Chicago", "zip_code": "60614", "country": "US", "state": "IL", "display_address": ["1408 W Diversey Pkwy", "Chicago, IL 60614"]}, "phone": "+17736879027", "display_phone": "(773) 687-9027", "distance": 3741.9322746425782}, {"id": "Sw_PQIgLW78QqAAMvUwEQw", "alias": "lees-chop-suey-chicago", "name": "Lee's Chop Suey", "image_url": "https://s3-media2.fl.yelpcdn.com/bphoto/9EovCS91PSBLFziavTDFyg/o.jpg", "is_closed": false, "url": "https://www.yelp.com/biz/lees-chop-suey-chicago?adjust_creative=7CK4ybIEl13vojI6byrxTw&utm_campaign=yelp_api_v3&utm_medium=api_v3_business_search&utm_source=7CK4ybIEl13vojI6byrxTw", "review_count": 183, "categories": [{"alias": "chinese", "title": "Chinese"}], "rating": 3.5, "coordinates": {"latitude": 41.93201, "longitude": -87.68877}, "transactions": ["pickup", "delivery"], "price": "$", "location": {"address1": "2415 W Diversey Ave", "address2": "", "address3": "", "city": "Chicago", "zip_code": "60647", "country": "US", "state": "IL", "display_address": ["2415 W Diversey Ave", "Chicago, IL 60647"]}, "phone": "+17733427050", "display_phone": "(773) 342-7050", "distance": 3166.2941233854904}, {"id": "Ez3ksP4t8yPr_PQ-zghiFg", "alias": "p-f-changs-to-go-chicago-7", "name": "P.F. Chang's To Go", "image_url": "https://s3-media2.fl.yelpcdn.com/bphoto/fiyy5T_uN-V5VpS4RLct_g/o.jpg", "is_closed": false, "url": "https://www.yelp.com/biz/p-f-changs-to-go-chicago-7?adjust_creative=7CK4ybIEl13vojI6byrxTw&utm_campaign=yelp_api_v3&utm_medium=api_v3_business_search&utm_source=7CK4ybIEl13vojI6byrxTw", "review_count": 11, "categories": [{"alias": "chinese", "title": "Chinese"}], "rating": 2.0, "coordinates": {"latitude": 41.885203, "longitude": -87.65189122698365}, "transactions": ["pickup", "delivery"], "location": {"address1": "177 N Morgan St", "address2": null, "address3": "", "city": "Chicago", "zip_code": "60607", "country": "US", "state": "IL", "display_address": ["177 N Morgan St", "Chicago, IL 60607"]}, "phone": "+13128784500", "display_phone": "(312) 878-4500", "distance": 3541.4298744175176}, {"id": "OSMx-5Trt2VtJByoF3HmYA", "alias": "king-wok-gourmet-asian-chicago", "name": "King Wok Gourmet Asian", "image_url": "https://s3-media2.fl.yelpcdn.com/bphoto/CD-j3oTIygFRnq0xcszbbw/o.jpg", "is_closed": false, "url": "https://www.yelp.com/biz/king-wok-gourmet-asian-chicago?adjust_creative=7CK4ybIEl13vojI6byrxTw&utm_campaign=yelp_api_v3&utm_medium=api_v3_business_search&utm_source=7CK4ybIEl13vojI6byrxTw", "review_count": 126, "categories": [{"alias": "chinese", "title": "Chinese"}], "rating": 3.5, "coordinates": {"latitude": 41.880806, "longitude": -87.68512}, "transactions": ["pickup", "delivery"], "price": "$", "location": {"address1": "2323 W Madison St", "address2": null, "address3": "", "city": "Chicago", "zip_code": "60612", "country": "US", "state": "IL", "display_address": ["2323 W Madison St", "Chicago, IL 60612"]}, "phone": "+13122262268", "display_phone": "(312) 226-2268", "distance": 2528.630766286245}, {"id": "p8TvVv3lkTBzmOcKmRRbtw", "alias": "sakura-teppanyaki-and-sushi-chicago", "name": "Sakura Teppanyaki & Sushi", "image_url": "https://s3-media1.fl.yelpcdn.com/bphoto/VMdytFzIKTTIPkPy8uNOgw/o.jpg", "is_closed": false, "url": "https://www.yelp.com/biz/sakura-teppanyaki-and-sushi-chicago?adjust_creative=7CK4ybIEl13vojI6byrxTw&utm_campaign=yelp_api_v3&utm_medium=api_v3_business_search&utm_source=7CK4ybIEl13vojI6byrxTw", "review_count": 540, "categories": [{"alias": "sushi", "title": "Sushi Bars"}, {"alias": "asianfusion", "title": "Asian Fusion"}, {"alias": "teppanyaki", "title": "Teppanyaki"}], "rating": 3.5, "coordinates": {"latitude": 41.9327257564786, "longitude": -87.6478314399719}, "transactions": ["pickup", "restaurant_reservation", "delivery"], "price": "$$", "location": {"address1": "730 W Diversey Pkwy", "address2": "", "address3": "", "city": "Chicago", "zip_code": "60614", "country": "US", "state": "IL", "display_address": ["730 W Diversey Pkwy", "Chicago, IL 60614"]}, "phone": "+17732482882", "display_phone": "(773) 248-2882", "distance": 4577.439834600711}, {"id": "I5sSX3kNw8SN5kjB1Yc4UQ", "alias": "native-foods-chicago-5", "name": "Native Foods", "image_url": "https://s3-media2.fl.yelpcdn.com/bphoto/ZW8vXqmmZAy56IOH5cjsxw/o.jpg", "is_closed": false, "url": "https://www.yelp.com/biz/native-foods-chicago-5?adjust_creative=7CK4ybIEl13vojI6byrxTw&utm_campaign=yelp_api_v3&utm_medium=api_v3_business_search&utm_source=7CK4ybIEl13vojI6byrxTw", "review_count": 636, "categories": [{"alias": "vegan", "title": "Vegan"}, {"alias": "newamerican", "title": "American (New)"}, {"alias": "sandwiches", "title": "Sandwiches"}], "rating": 4.0, "coordinates": {"latitude": 41.90873923394615, "longitude": -87.67531163385351}, "transactions": ["pickup", "delivery"], "price": "$$", "location": {"address1": "1484 N Milwaukee Ave", "address2": "", "address3": "", "city": "Chicago", "zip_code": "60622", "country": "US", "state": "IL", "display_address": ["1484 N Milwaukee Ave", "Chicago, IL 60622"]}, "phone": "+17734898480", "display_phone": "(773) 489-8480", "distance": 1116.4808304558476}, {"id": "WZ7qwg6yZ6WIsPd-DF2ZlQ", "alias": "wow-bao-chicago-9", "name": "Wow Bao", "image_url": "https://s3-media2.fl.yelpcdn.com/bphoto/yRRNXHnP_0LSJCRPOKbUdQ/o.jpg", "is_closed": false, "url": "https://www.yelp.com/biz/wow-bao-chicago-9?adjust_creative=7CK4ybIEl13vojI6byrxTw&utm_campaign=yelp_api_v3&utm_medium=api_v3_business_search&utm_source=7CK4ybIEl13vojI6byrxTw", "review_count": 141, "categories": [{"alias": "chinese", "title": "Chinese"}, {"alias": "asianfusion", "title": "Asian Fusion"}, {"alias": "hotdogs", "title": "Fast Food"}], "rating": 3.0, "coordinates": {"latitude": 41.9330049396068, "longitude": -87.6451519465329}, "transactions": ["pickup", "delivery"], "price": "$", "location": {"address1": "2806 N Clark St", "address2": "", "address3": "", "city": "Chicago", "zip_code": "60657", "country": "US", "state": "IL", "display_address": ["2806 N Clark St", "Chicago, IL 60657"]}, "phone": "+17734335333", "display_phone": "(773) 433-5333", "distance": 4750.909727722471}, {"id": "-6zP5QS-wP9qpTKM1Aok6g", "alias": "couscous-restaurant-chicago", "name": "Couscous Restaurant", "image_url": "https://s3-media3.fl.yelpcdn.com/bphoto/KjYzKKqTAF0XMmhm33PWrg/o.jpg", "is_closed": false, "url": "https://www.yelp.com/biz/couscous-restaurant-chicago?adjust_creative=7CK4ybIEl13vojI6byrxTw&utm_campaign=yelp_api_v3&utm_medium=api_v3_business_search&utm_source=7CK4ybIEl13vojI6byrxTw", "review_count": 177, "categories": [{"alias": "mideastern", "title": "Middle Eastern"}, {"alias": "falafel", "title": "Falafel"}, {"alias": "vegetarian", "title": "Vegetarian"}], "rating": 3.5, "coordinates": {"latitude": 41.8691366, "longitude": -87.6633982}, "transactions": ["pickup"], "price": "$", "location": {"address1": "1445 W Taylor St", "address2": "", "address3": "", "city": "Chicago", "zip_code": "60607", "country": "US", "state": "IL", "display_address": ["1445 W Taylor St", "Chicago, IL 60607"]}, "phone": "+13122262408", "display_phone": "(312) 226-2408", "distance": 4291.551307076129}, {"id": "7XeT1wnKJwI48ksk5Qbspw", "alias": "chois-chinese-restaurant-chicago", "name": "Choi's Chinese Restaurant", "image_url": "https://s3-media2.fl.yelpcdn.com/bphoto/Kd3e2IBZpCqP24zbDZO6qA/o.jpg", "is_closed": false, "url": "https://www.yelp.com/biz/chois-chinese-restaurant-chicago?adjust_creative=7CK4ybIEl13vojI6byrxTw&utm_campaign=yelp_api_v3&utm_medium=api_v3_business_search&utm_source=7CK4ybIEl13vojI6byrxTw", "review_count": 76, "categories": [{"alias": "chinese", "title": "Chinese"}], "rating": 3.0, "coordinates": {"latitude": 41.929626, "longitude": -87.7086048}, "transactions": ["pickup", "delivery"], "price": "$", "location": {"address1": "2638 N Milwaukee Ave", "address2": "", "address3": "", "city": "Chicago", "zip_code": "60647", "country": "US", "state": "IL", "display_address": ["2638 N Milwaukee Ave", "Chicago, IL 60647"]}, "phone": "+17734868496", "display_phone": "(773) 486-8496", "distance": 3405.9481327368794}, {"id": "cT5PCUVcozFYUFlCKigodg", "alias": "house-of-hunan-chicago", "name": "House of Hunan", "image_url": "https://s3-media1.fl.yelpcdn.com/bphoto/a5T-GWoBuHjeVWJJxbqAsw/o.jpg", "is_closed": false, "url": "https://www.yelp.com/biz/house-of-hunan-chicago?adjust_creative=7CK4ybIEl13vojI6byrxTw&utm_campaign=yelp_api_v3&utm_medium=api_v3_business_search&utm_source=7CK4ybIEl13vojI6byrxTw", "review_count": 282, "categories": [{"alias": "chinese", "title": "Chinese"}, {"alias": "asianfusion", "title": "Asian Fusion"}, {"alias": "seafood", "title": "Seafood"}], "rating": 3.0, "coordinates": {"latitude": 41.925893, "longitude": -87.641125}, "transactions": ["pickup", "delivery"], "price": "$", "location": {"address1": "444 W Fullerton Pkwy", "address2": "", "address3": "", "city": "Chicago", "zip_code": "60614", "country": "US", "state": "IL", "display_address": ["444 W Fullerton Pkwy", "Chicago, IL 60614"]}, "phone": "+17739293212", "display_phone": "(773) 929-3212", "distance": 4527.062083242265}, {"id": "sjhBzCcFE2bzAG3j53roZQ", "alias": "toro-sushi-chicago-3", "name": "Toro Sushi", "image_url": "https://s3-media1.fl.yelpcdn.com/bphoto/Q_jihSYTKovGZH6qlZngAw/o.jpg", "is_closed": false, "url": "https://www.yelp.com/biz/toro-sushi-chicago-3?adjust_creative=7CK4ybIEl13vojI6byrxTw&utm_campaign=yelp_api_v3&utm_medium=api_v3_business_search&utm_source=7CK4ybIEl13vojI6byrxTw", "review_count": 1119, "categories": [{"alias": "sushi", "title": "Sushi Bars"}], "rating": 4.0, "coordinates": {"latitude": 41.92907, "longitude": -87.64281}, "transactions": ["pickup", "delivery"], "price": "$$", "location": {"address1": "2546 N Clark St", "address2": "", "address3": "", "city": "Chicago", "zip_code": "60614", "country": "US", "state": "IL", "display_address": ["2546 N Clark St", "Chicago, IL 60614"]}, "phone": "+17733487255", "display_phone": "(773) 348-7255", "distance": 4616.156946615333}, {"id": "AMSnlzINjJz3baG3_vTxtA", "alias": "great-dragon-chicago", "name": "Great Dragon", "image_url": "https://s3-media1.fl.yelpcdn.com/bphoto/pAM5spCEfEhdeStQ4wshTw/o.jpg", "is_closed": false, "url": "https://www.yelp.com/biz/great-dragon-chicago?adjust_creative=7CK4ybIEl13vojI6byrxTw&utm_campaign=yelp_api_v3&utm_medium=api_v3_business_search&utm_source=7CK4ybIEl13vojI6byrxTw", "review_count": 105, "categories": [{"alias": "chinese", "title": "Chinese"}], "rating": 3.0, "coordinates": {"latitude": 41.9405784606934, "longitude": -87.7257232666016}, "transactions": ["pickup", "delivery"], "price": "$", "location": {"address1": "3269 N Milwaukee Ave", "address2": "", "address3": "", "city": "Chicago", "zip_code": "60618", "country": "US", "state": "IL", "display_address": ["3269 N Milwaukee Ave", "Chicago, IL 60618"]}, "phone": "+17736854777", "display_phone": "(773) 685-4777", "distance": 5237.1884660925625}, {"id": "HWwXWszZK5cCLTrKkqvlCA", "alias": "d-cuisine-chicago-3", "name": "D Cuisine", "image_url": "https://s3-media2.fl.yelpcdn.com/bphoto/adzcrKB1f0A7pJ5DWRs2hA/o.jpg", "is_closed": false, "url": "https://www.yelp.com/biz/d-cuisine-chicago-3?adjust_creative=7CK4ybIEl13vojI6byrxTw&utm_campaign=yelp_api_v3&utm_medium=api_v3_business_search&utm_source=7CK4ybIEl13vojI6byrxTw", "review_count": 245, "categories": [{"alias": "dimsum", "title": "Dim Sum"}, {"alias": "cantonese", "title": "Cantonese"}, {"alias": "seafood", "title": "Seafood"}], "rating": 4.5, "coordinates": {"latitude": 41.93208, "longitude": -87.644361}, "transactions": ["pickup", "delivery"], "price": "$$", "location": {"address1": "2723 N Clark St", "address2": null, "address3": "", "city": "Chicago", "zip_code": "60614", "country": "US", "state": "IL", "display_address": ["2723 N Clark St", "Chicago, IL 60614"]}, "phone": "+17733607239", "display_phone": "(773) 360-7239", "distance": 4735.377850816692}, {"id": "iuFSSw6VYxgcnUmVDqwQ0Q", "alias": "macku-sushi-chicago", "name": "Macku Sushi", "image_url": "https://s3-media4.fl.yelpcdn.com/bphoto/HLaEfnM_ZhtG9jERcExkVw/o.jpg", "is_closed": false, "url": "https://www.yelp.com/biz/macku-sushi-chicago?adjust_creative=7CK4ybIEl13vojI6byrxTw&utm_campaign=yelp_api_v3&utm_medium=api_v3_business_search&utm_source=7CK4ybIEl13vojI6byrxTw", "review_count": 420, "categories": [{"alias": "sushi", "title": "Sushi Bars"}, {"alias": "japanese", "title": "Japanese"}, {"alias": "asianfusion", "title": "Asian Fusion"}], "rating": 4.0, "coordinates": {"latitude": 41.92255, "longitude": -87.66521}, "transactions": ["pickup"], "price": "$$$", "location": {"address1": "2239 N Clybourn Ave", "address2": "", "address3": "", "city": "Chicago", "zip_code": "60614", "country": "US", "state": "IL", "display_address": ["2239 N Clybourn Ave", "Chicago, IL 60614"]}, "phone": "+17738808012", "display_phone": "(773) 880-8012", "distance": 2766.5588091207396}, {"id": "Wr4TZ8cQcOaio1TvBuTwjg", "alias": "nori-sushi-wicker-park-chicago-4", "name": "Nori Sushi - Wicker Park", "image_url": "https://s3-media2.fl.yelpcdn.com/bphoto/lqJ79wnBZOrTqDy9808qTw/o.jpg", "is_closed": false, "url": "https://www.yelp.com/biz/nori-sushi-wicker-park-chicago-4?adjust_creative=7CK4ybIEl13vojI6byrxTw&utm_campaign=yelp_api_v3&utm_medium=api_v3_business_search&utm_source=7CK4ybIEl13vojI6byrxTw", "review_count": 324, "categories": [{"alias": "sushi", "title": "Sushi Bars"}, {"alias": "japanese", "title": "Japanese"}], "rating": 3.5, "coordinates": {"latitude": 41.90735, "longitude": -87.67224}, "transactions": ["pickup", "delivery"], "price": "$$", "location": {"address1": "1393 N Milwaukee Ave", "address2": "", "address3": "", "city": "Chicago", "zip_code": "60622", "country": "US", "state": "IL", "display_address": ["1393 N Milwaukee Ave", "Chicago, IL 60622"]}, "phone": "+17732929992", "display_phone": "(773) 292-9992", "distance": 1273.4354872280203}, {"id": "3aoCOA9tc3Nhi2swyhR-1Q", "alias": "bourgeois-pig-cafe-chicago", "name": "Bourgeois Pig Cafe", "image_url": "https://s3-media3.fl.yelpcdn.com/bphoto/rjXX_liibsVZGMChp_P_1A/o.jpg", "is_closed": false, "url": "https://www.yelp.com/biz/bourgeois-pig-cafe-chicago?adjust_creative=7CK4ybIEl13vojI6byrxTw&utm_campaign=yelp_api_v3&utm_medium=api_v3_business_search&utm_source=7CK4ybIEl13vojI6byrxTw", "review_count": 913, "categories": [{"alias": "vegetarian", "title": "Vegetarian"}, {"alias": "sandwiches", "title": "Sandwiches"}, {"alias": "salad", "title": "Salad"}], "rating": 3.5, "coordinates": {"latitude": 41.92567, "longitude": -87.64791}, "transactions": ["pickup", "delivery"], "price": "$$", "location": {"address1": "738 W Fullerton Ave", "address2": "", "address3": "", "city": "Chicago", "zip_code": "60614", "country": "US", "state": "IL", "display_address": ["738 W Fullerton Ave", "Chicago, IL 60614"]}, "phone": "+17738835282", "display_phone": "(773) 883-5282", "distance": 4056.1705156625667}, {"id": "3sm8J2udv3uybZRCNWN5uA", "alias": "koi-sushi-chicago-2", "name": "Koi Sushi", "image_url": "https://s3-media1.fl.yelpcdn.com/bphoto/bYAFMhiD20xkTa-n6AYyPA/o.jpg", "is_closed": false, "url": "https://www.yelp.com/biz/koi-sushi-chicago-2?adjust_creative=7CK4ybIEl13vojI6byrxTw&utm_campaign=yelp_api_v3&utm_medium=api_v3_business_search&utm_source=7CK4ybIEl13vojI6byrxTw", "review_count": 102, "categories": [{"alias": "japanese", "title": "Japanese"}, {"alias": "sushi", "title": "Sushi Bars"}], "rating": 4.5, "coordinates": {"latitude": 41.92038, "longitude": -87.66296}, "transactions": ["pickup", "delivery"], "price": "$$", "location": {"address1": "2156 N Clybourn Ave", "address2": null, "address3": "", "city": "Chicago", "zip_code": "60614", "country": "US", "state": "IL", "display_address": ["2156 N Clybourn Ave", "Chicago, IL 60614"]}, "phone": "+17739048144", "display_phone": "(773) 904-8144", "distance": 2728.689278233461}, {"id": "fmNVLYWIfVWb1J7ZLaJWNg", "alias": "kitchen-united-mix-chicago", "name": "Kitchen United MIX", "image_url": "https://s3-media4.fl.yelpcdn.com/bphoto/vnbaiaHe7UnuDe6Bs4u2Og/o.jpg", "is_closed": false, "url": "https://www.yelp.com/biz/kitchen-united-mix-chicago?adjust_creative=7CK4ybIEl13vojI6byrxTw&utm_campaign=yelp_api_v3&utm_medium=api_v3_business_search&utm_source=7CK4ybIEl13vojI6byrxTw", "review_count": 66, "categories": [{"alias": "fooddeliveryservices", "title": "Food Delivery Services"}, {"alias": "hotdogs", "title": "Fast Food"}], "rating": 3.0, "coordinates": {"latitude": 41.897276, "longitude": -87.638533}, "transactions": ["delivery"], "location": {"address1": "831 N Sedgwick St", "address2": null, "address3": "", "city": "Chicago", "zip_code": "60610", "country": "US", "state": "IL", "display_address": ["831 N Sedgwick St", "Chicago, IL 60610"]}, "phone": "+13128588088", "display_phone": "(312) 858-8088", "distance": 4060.3498570079023}, {"id": "gphjOIZGokTtlAIsmG9lOw", "alias": "sushi-payce-chicago", "name": "Sushi Payce", "image_url": "https://s3-media2.fl.yelpcdn.com/bphoto/d7GjryjdyuQEmI1poQ0ISQ/o.jpg", "is_closed": false, "url": "https://www.yelp.com/biz/sushi-payce-chicago?adjust_creative=7CK4ybIEl13vojI6byrxTw&utm_campaign=yelp_api_v3&utm_medium=api_v3_business_search&utm_source=7CK4ybIEl13vojI6byrxTw", "review_count": 57, "categories": [{"alias": "sushi", "title": "Sushi Bars"}], "rating": 3.5, "coordinates": {"latitude": 41.92511359161431, "longitude": -87.66403659260388}, "transactions": ["pickup", "restaurant_reservation", "delivery"], "price": "$$$", "location": {"address1": "1417 W Fullerton Ave", "address2": null, "address3": "", "city": "Chicago", "zip_code": "60614", "country": "US", "state": "IL", "display_address": ["1417 W Fullerton Ave", "Chicago, IL 60614"]}, "phone": "+17736879394", "display_phone": "(773) 687-9394", "distance": 3052.167709284025}, {"id": "90-6FQYDxKp516WnO_jMpg", "alias": "galit-chicago", "name": "Galit", "image_url": "https://s3-media1.fl.yelpcdn.com/bphoto/GaERY1e9D0P41Nm2B28wLQ/o.jpg", "is_closed": false, "url": "https://www.yelp.com/biz/galit-chicago?adjust_creative=7CK4ybIEl13vojI6byrxTw&utm_campaign=yelp_api_v3&utm_medium=api_v3_business_search&utm_source=7CK4ybIEl13vojI6byrxTw", "review_count": 274, "categories": [{"alias": "mediterranean", "title": "Mediterranean"}, {"alias": "mideastern", "title": "Middle Eastern"}, {"alias": "vegetarian", "title": "Vegetarian"}], "rating": 4.5, "coordinates": {"latitude": 41.9261880718568, "longitude": -87.6496120914817}, "transactions": ["delivery"], "price": "$$", "location": {"address1": "2429 N Lincoln Ave", "address2": "", "address3": null, "city": "Chicago", "zip_code": "60614", "country": "US", "state": "IL", "display_address": ["2429 N Lincoln Ave", "Chicago, IL 60614"]}, "phone": "+17733608755", "display_phone": "(773) 360-8755", "distance": 3979.4491274845964}, {"id": "M1uM-ybxppDn_N5aO6Mg5A", "alias": "roots-handmade-pizza-west-town-chicago-2", "name": "Roots Handmade Pizza - West Town", "image_url": "https://s3-media2.fl.yelpcdn.com/bphoto/nG4RuDsXZC_QKeD8nCCusA/o.jpg", "is_closed": false, "url": "https://www.yelp.com/biz/roots-handmade-pizza-west-town-chicago-2?adjust_creative=7CK4ybIEl13vojI6byrxTw&utm_campaign=yelp_api_v3&utm_medium=api_v3_business_search&utm_source=7CK4ybIEl13vojI6byrxTw", "review_count": 944, "categories": [{"alias": "pizza", "title": "Pizza"}, {"alias": "salad", "title": "Salad"}, {"alias": "beerbar", "title": "Beer Bar"}], "rating": 3.5, "coordinates": {"latitude": 41.896268, "longitude": -87.675636}, "transactions": ["pickup", "delivery"], "price": "$$", "location": {"address1": "1924 W Chicago Ave", "address2": null, "address3": "", "city": "Chicago", "zip_code": "60622", "country": "US", "state": "IL", "display_address": ["1924 W Chicago Ave", "Chicago, IL 60622"]}, "phone": "+17736454949", "display_phone": "(773) 645-4949", "distance": 1233.7754852889661}, {"id": "GZlBiURnGYPY7qwIAuq8zg", "alias": "yu-shan-chicago-2", "name": "Yu Shan", "image_url": "https://s3-media3.fl.yelpcdn.com/bphoto/_Jaa_BIzqAFD7-8pkoAElw/o.jpg", "is_closed": false, "url": "https://www.yelp.com/biz/yu-shan-chicago-2?adjust_creative=7CK4ybIEl13vojI6byrxTw&utm_campaign=yelp_api_v3&utm_medium=api_v3_business_search&utm_source=7CK4ybIEl13vojI6byrxTw", "review_count": 7, "categories": [{"alias": "chinese", "title": "Chinese"}], "rating": 3.5, "coordinates": {"latitude": 41.90239, "longitude": -87.665486}, "transactions": ["pickup", "delivery"], "location": {"address1": "1146 N Milwaukee Ave", "address2": "", "address3": null, "city": "Chicago", "zip_code": "60642", "country": "US", "state": "IL", "display_address": ["1146 N Milwaukee Ave", "Chicago, IL 60642"]}, "phone": "+13125274400", "display_phone": "(312) 527-4400", "distance": 1773.5295988330276}, {"id": "s4dkTmKIxrVFn906ZL0mXw", "alias": "tai-chi-bubble-tea-chicago-7", "name": "Tai Chi Bubble Tea", "image_url": "https://s3-media4.fl.yelpcdn.com/bphoto/KTODqtzqswHKDRh0-FBVNQ/o.jpg", "is_closed": false, "url": "https://www.yelp.com/biz/tai-chi-bubble-tea-chicago-7?adjust_creative=7CK4ybIEl13vojI6byrxTw&utm_campaign=yelp_api_v3&utm_medium=api_v3_business_search&utm_source=7CK4ybIEl13vojI6byrxTw", "review_count": 30, "categories": [{"alias": "bubbletea", "title": "Bubble Tea"}, {"alias": "ramen", "title": "Ramen"}, {"alias": "sushi", "title": "Sushi Bars"}], "rating": 3.5, "coordinates": {"latitude": 41.869593, "longitude": -87.656536}, "transactions": ["pickup", "delivery"], "location": {"address1": "1158 W Taylor St", "address2": null, "address3": "", "city": "Chicago", "zip_code": "60607", "country": "US", "state": "IL", "display_address": ["1158 W Taylor St", "Chicago, IL 60607"]}, "phone": "+13128775239", "display_phone": "(312) 877-5239", "distance": 4534.758902063368}, {"id": "AVcyeXDCjzVASjZlT_93Ww", "alias": "sushi-pink-chicago", "name": "Sushi Pink", "image_url": "https://s3-media3.fl.yelpcdn.com/bphoto/0KcIM-2sOyr6nWaieYYlQw/o.jpg", "is_closed": false, "url": "https://www.yelp.com/biz/sushi-pink-chicago?adjust_creative=7CK4ybIEl13vojI6byrxTw&utm_campaign=yelp_api_v3&utm_medium=api_v3_business_search&utm_source=7CK4ybIEl13vojI6byrxTw", "review_count": 252, "categories": [{"alias": "sushi", "title": "Sushi Bars"}, {"alias": "asianfusion", "title": "Asian Fusion"}, {"alias": "ramen", "title": "Ramen"}], "rating": 3.5, "coordinates": {"latitude": 41.882829, "longitude": -87.650353}, "transactions": ["pickup", "delivery"], "price": "$$", "location": {"address1": "913 W Washington Blvd", "address2": "", "address3": "", "city": "Chicago", "zip_code": "60607", "country": "US", "state": "IL", "display_address": ["913 W Washington Blvd", "Chicago, IL 60607"]}, "phone": "+13122261666", "display_phone": "(312) 226-1666", "distance": 3800.293394414513}, {"id": "v-rvEsqRtJcECRhcK3WUZg", "alias": "china-court-chicago", "name": "China Court", "image_url": "https://s3-media2.fl.yelpcdn.com/bphoto/JInhmxlKGDarjH0TmwXHpg/o.jpg", "is_closed": false, "url": "https://www.yelp.com/biz/china-court-chicago?adjust_creative=7CK4ybIEl13vojI6byrxTw&utm_campaign=yelp_api_v3&utm_medium=api_v3_business_search&utm_source=7CK4ybIEl13vojI6byrxTw", "review_count": 127, "categories": [{"alias": "chinese", "title": "Chinese"}], "rating": 3.5, "coordinates": {"latitude": 41.9023813, "longitude": -87.6652238}, "transactions": ["pickup", "delivery"], "price": "$", "location": {"address1": "1146 N Milwaukee Ave", "address2": "", "address3": "", "city": "Chicago", "zip_code": "60642", "country": "US", "state": "IL", "display_address": ["1146 N Milwaukee Ave", "Chicago, IL 60642"]}, "phone": "+17732922388", "display_phone": "(773) 292-2388", "distance": 1773.5295988330276}, {"id": "48BPQ2YVWr8PkNJSekh5pA", "alias": "sushi-rotary-sushi-bar-boystown-chicago", "name": "Sushi + Rotary Sushi Bar - Boystown", "image_url": "https://s3-media3.fl.yelpcdn.com/bphoto/IjzwrH-0_1d8qkczhPjfPg/o.jpg", "is_closed": false, "url": "https://www.yelp.com/biz/sushi-rotary-sushi-bar-boystown-chicago?adjust_creative=7CK4ybIEl13vojI6byrxTw&utm_campaign=yelp_api_v3&utm_medium=api_v3_business_search&utm_source=7CK4ybIEl13vojI6byrxTw", "review_count": 505, "categories": [{"alias": "conveyorsushi", "title": "Conveyor Belt Sushi"}, {"alias": "sushi", "title": "Sushi Bars"}, {"alias": "ramen", "title": "Ramen"}], "rating": 4.5, "coordinates": {"latitude": 41.9403536, "longitude": -87.6442751}, "transactions": ["pickup"], "price": "$$", "location": {"address1": "3219 North Broadway", "address2": "", "address3": null, "city": "Chicago", "zip_code": "60657", "country": "US", "state": "IL", "display_address": ["3219 North Broadway", "Chicago, IL 60657"]}, "phone": "+18728020980", "display_phone": "(872) 802-0980", "distance": 5457.232184970168}, {"id": "cKH4p-pGXtr7Cl091uxPXg", "alias": "jin-asian-cafe-chicago", "name": "Jin Asian Cafe", "image_url": "https://s3-media4.fl.yelpcdn.com/bphoto/12_YCmQU2kuuf6bJSBo-BQ/o.jpg", "is_closed": false, "url": "https://www.yelp.com/biz/jin-asian-cafe-chicago?adjust_creative=7CK4ybIEl13vojI6byrxTw&utm_campaign=yelp_api_v3&utm_medium=api_v3_business_search&utm_source=7CK4ybIEl13vojI6byrxTw", "review_count": 52, "categories": [{"alias": "chinese", "title": "Chinese"}, {"alias": "japanese", "title": "Japanese"}, {"alias": "seafood", "title": "Seafood"}], "rating": 3.5, "coordinates": {"latitude": 41.9396324157715, "longitude": -87.656135559082}, "transactions": ["pickup", "delivery"], "price": "$$", "location": {"address1": "1053 W Belmont Ave", "address2": "", "address3": "", "city": "Chicago", "zip_code": "60657", "country": "US", "state": "IL", "display_address": ["1053 W Belmont Ave", "Chicago, IL 60657"]}, "phone": "+17732481133", "display_phone": "(773) 248-1133", "distance": 4742.895113376362}, {"id": "Q2H-1CkgecRw7AfXOYBlGQ", "alias": "yum-dum-truck-chicago", "name": "Yum Dum Truck", "image_url": "https://s3-media3.fl.yelpcdn.com/bphoto/cG1oGjXouI-7SngZ7b8T9A/o.jpg", "is_closed": false, "url": "https://www.yelp.com/biz/yum-dum-truck-chicago?adjust_creative=7CK4ybIEl13vojI6byrxTw&utm_campaign=yelp_api_v3&utm_medium=api_v3_business_search&utm_source=7CK4ybIEl13vojI6byrxTw", "review_count": 90, "categories": [{"alias": "foodtrucks", "title": "Food Trucks"}, {"alias": "asianfusion", "title": "Asian Fusion"}], "rating": 4.0, "coordinates": {"latitude": 41.8805999755859, "longitude": -87.6548690795898}, "transactions": ["pickup", "delivery"], "price": "$", "location": {"address1": "", "address2": null, "address3": "", "city": "Chicago", "zip_code": "60607", "country": "US", "state": "IL", "display_address": ["Chicago, IL 60607"]}, "phone": "+18473761925", "display_phone": "(847) 376-1925", "distance": 4496.40202684821}, {"id": "o-9UsUAF7K-ZByF9J6rKKA", "alias": "van-phat-chinese-restaurant-chicago", "name": "Van Phat Chinese Restaurant", "image_url": "https://s3-media2.fl.yelpcdn.com/bphoto/3qBNkOrqIEbCnO8YZLAp2A/o.jpg", "is_closed": false, "url": "https://www.yelp.com/biz/van-phat-chinese-restaurant-chicago?adjust_creative=7CK4ybIEl13vojI6byrxTw&utm_campaign=yelp_api_v3&utm_medium=api_v3_business_search&utm_source=7CK4ybIEl13vojI6byrxTw", "review_count": 66, "categories": [{"alias": "chinese", "title": "Chinese"}], "rating": 3.0, "coordinates": {"latitude": 41.93166, "longitude": -87.71263}, "transactions": ["pickup", "delivery"], "price": "$", "location": {"address1": "2750 N Kimball Ave", "address2": "", "address3": "", "city": "Chicago", "zip_code": "60647", "country": "US", "state": "IL", "display_address": ["2750 N Kimball Ave", "Chicago, IL 60647"]}, "phone": "+17733425222", "display_phone": "(773) 342-5222", "distance": 3781.223186772271}, {"id": "Uv5e7CyZqj5ClRl-MxqrEw", "alias": "goddess-and-grocer-chicago-5", "name": "Goddess and Grocer", "image_url": "https://s3-media3.fl.yelpcdn.com/bphoto/cELqc4nzcW8x7o9EKAMQfA/o.jpg", "is_closed": false, "url": "https://www.yelp.com/biz/goddess-and-grocer-chicago-5?adjust_creative=7CK4ybIEl13vojI6byrxTw&utm_campaign=yelp_api_v3&utm_medium=api_v3_business_search&utm_source=7CK4ybIEl13vojI6byrxTw", "review_count": 134, "categories": [{"alias": "salad", "title": "Salad"}, {"alias": "soup", "title": "Soup"}, {"alias": "sandwiches", "title": "Sandwiches"}], "rating": 2.5, "coordinates": {"latitude": 41.898796, "longitude": -87.6426989}, "transactions": ["pickup", "delivery"], "price": "$$", "location": {"address1": "901 N Larrabee St", "address2": "", "address3": "", "city": "Chicago", "zip_code": "60610", "country": "US", "state": "IL", "display_address": ["901 N Larrabee St", "Chicago, IL 60610"]}, "phone": "+13129889870", "display_phone": "(312) 988-9870", "distance": 3693.163821241386}, {"id": "ChYBFc47Q84yh4MrOSHM7Q", "alias": "protein-bar-chicago-11", "name": "Protein Bar", "image_url": "https://s3-media3.fl.yelpcdn.com/bphoto/1yKFu5zJkKvgyXfs27smqA/o.jpg", "is_closed": false, "url": "https://www.yelp.com/biz/protein-bar-chicago-11?adjust_creative=7CK4ybIEl13vojI6byrxTw&utm_campaign=yelp_api_v3&utm_medium=api_v3_business_search&utm_source=7CK4ybIEl13vojI6byrxTw", "review_count": 135, "categories": [{"alias": "newamerican", "title": "American (New)"}, {"alias": "vegan", "title": "Vegan"}, {"alias": "gluten_free", "title": "Gluten-Free"}], "rating": 4.0, "coordinates": {"latitude": 41.91677, "longitude": -87.65721}, "transactions": ["pickup", "delivery"], "price": "$$", "location": {"address1": "1953 N Clybourn", "address2": "", "address3": "", "city": "Chicago", "zip_code": "60614", "country": "US", "state": "IL", "display_address": ["1953 N Clybourn", "Chicago, IL 60614"]}, "phone": "+17734721500", "display_phone": "(773) 472-1500", "distance": 2864.11976992329}, {"id": "56geLNeG35U8o6JivThzYg", "alias": "poke-pok\u00e9-chicago-5", "name": "Poke Pok\u00e9", "image_url": "https://s3-media3.fl.yelpcdn.com/bphoto/lq2HWUnlHc1fC0jFaneb_Q/o.jpg", "is_closed": false, "url": "https://www.yelp.com/biz/poke-pok%C3%A9-chicago-5?adjust_creative=7CK4ybIEl13vojI6byrxTw&utm_campaign=yelp_api_v3&utm_medium=api_v3_business_search&utm_source=7CK4ybIEl13vojI6byrxTw", "review_count": 100, "categories": [{"alias": "poke", "title": "Poke"}, {"alias": "japanese", "title": "Japanese"}, {"alias": "salad", "title": "Salad"}], "rating": 4.5, "coordinates": {"latitude": 41.940098, "longitude": -87.649537}, "transactions": ["pickup", "delivery"], "price": "$$", "location": {"address1": "802 W Belmont Ave", "address2": null, "address3": "", "city": "Chicago", "zip_code": "60657", "country": "US", "state": "IL", "display_address": ["802 W Belmont Ave", "Chicago, IL 60657"]}, "phone": "+17736665688", "display_phone": "(773) 666-5688", "distance": 5104.00346614221}, {"id": "4kmJ2mTGWxhDjt7PLVS92g", "alias": "sweetgreen-chicago-4", "name": "sweetgreen", "image_url": "https://s3-media4.fl.yelpcdn.com/bphoto/CqcMCwnJZcDRr8cPpdAgBQ/o.jpg", "is_closed": false, "url": "https://www.yelp.com/biz/sweetgreen-chicago-4?adjust_creative=7CK4ybIEl13vojI6byrxTw&utm_campaign=yelp_api_v3&utm_medium=api_v3_business_search&utm_source=7CK4ybIEl13vojI6byrxTw", "review_count": 96, "categories": [{"alias": "salad", "title": "Salad"}, {"alias": "vegetarian", "title": "Vegetarian"}], "rating": 3.0, "coordinates": {"latitude": 41.88461408349944, "longitude": -87.65234559774399}, "transactions": ["pickup", "delivery"], "price": "$$", "location": {"address1": "1000 Randolph St", "address2": "", "address3": null, "city": "Chicago", "zip_code": "60607", "country": "US", "state": "IL", "display_address": ["1000 Randolph St", "Chicago, IL 60607"]}, "phone": "+13124710200", "display_phone": "(312) 471-0200", "distance": 3549.2240238595796}, {"id": "fA2H14Jj4j2YB4uXGsnVag", "alias": "yellowtail-sushi-bar-and-asian-kitchen-chicago", "name": "Yellowtail Sushi Bar and Asian Kitchen", "image_url": "https://s3-media3.fl.yelpcdn.com/bphoto/xwnFoB95t1FKorOhkkabhA/o.jpg", "is_closed": false, "url": "https://www.yelp.com/biz/yellowtail-sushi-bar-and-asian-kitchen-chicago?adjust_creative=7CK4ybIEl13vojI6byrxTw&utm_campaign=yelp_api_v3&utm_medium=api_v3_business_search&utm_source=7CK4ybIEl13vojI6byrxTw", "review_count": 347, "categories": [{"alias": "sushi", "title": "Sushi Bars"}, {"alias": "ramen", "title": "Ramen"}], "rating": 4.0, "coordinates": {"latitude": 41.9388197, "longitude": -87.6444487}, "transactions": ["pickup", "delivery"], "price": "$$", "location": {"address1": "3136 N Broadway St", "address2": "", "address3": "", "city": "Chicago", "zip_code": "60657", "country": "US", "state": "IL", "display_address": ["3136 N Broadway St", "Chicago, IL 60657"]}, "phone": "+17738199000", "display_phone": "(773) 819-9000", "distance": 5262.453099475055}, {"id": "2L0cobUly2HYZaMoJlT8vg", "alias": "booze-box-chicago-3", "name": "Booze Box", "image_url": "https://s3-media1.fl.yelpcdn.com/bphoto/WzvYCtqSJ8LbL8N5Fw-3Kg/o.jpg", "is_closed": false, "url": "https://www.yelp.com/biz/booze-box-chicago-3?adjust_creative=7CK4ybIEl13vojI6byrxTw&utm_campaign=yelp_api_v3&utm_medium=api_v3_business_search&utm_source=7CK4ybIEl13vojI6byrxTw", "review_count": 174, "categories": [{"alias": "cocktailbars", "title": "Cocktail Bars"}, {"alias": "sushi", "title": "Sushi Bars"}, {"alias": "japanese", "title": "Japanese"}], "rating": 4.5, "coordinates": {"latitude": 41.884082, "longitude": -87.648366}, "transactions": ["pickup", "delivery"], "location": {"address1": "823 W Randolph", "address2": null, "address3": "", "city": "Chicago", "zip_code": "60607", "country": "US", "state": "IL", "display_address": ["823 W Randolph", "Chicago, IL 60607"]}, "phone": "+13124558238", "display_phone": "(312) 455-8238", "distance": 3852.330881051838}, {"id": "Vls71lzKhV8_lbM8VDNc4g", "alias": "freshii-chicago-9", "name": "Freshii", "image_url": "https://s3-media1.fl.yelpcdn.com/bphoto/ybsOFHDY6-bwVbvJCtuxsw/o.jpg", "is_closed": false, "url": "https://www.yelp.com/biz/freshii-chicago-9?adjust_creative=7CK4ybIEl13vojI6byrxTw&utm_campaign=yelp_api_v3&utm_medium=api_v3_business_search&utm_source=7CK4ybIEl13vojI6byrxTw", "review_count": 66, "categories": [{"alias": "vegetarian", "title": "Vegetarian"}, {"alias": "salad", "title": "Salad"}, {"alias": "hotdogs", "title": "Fast Food"}], "rating": 3.0, "coordinates": {"latitude": 41.881443, "longitude": -87.6413269}, "transactions": ["pickup", "delivery"], "price": "$$", "location": {"address1": "26 S Clinton St", "address2": "", "address3": "", "city": "Chicago", "zip_code": "60661", "country": "US", "state": "IL", "display_address": ["26 S Clinton St", "Chicago, IL 60661"]}, "phone": "+13123820900", "display_phone": "(312) 382-0900", "distance": 4513.871270150596}, {"id": "XnDmx77GbhDKnNaJMb5ADA", "alias": "hana-sushi-chinese-and-thai-chicago", "name": "Hana Sushi, Chinese & Thai", "image_url": "https://s3-media4.fl.yelpcdn.com/bphoto/S2YO7zs2AqTlAzilNi77Wg/o.jpg", "is_closed": false, "url": "https://www.yelp.com/biz/hana-sushi-chinese-and-thai-chicago?adjust_creative=7CK4ybIEl13vojI6byrxTw&utm_campaign=yelp_api_v3&utm_medium=api_v3_business_search&utm_source=7CK4ybIEl13vojI6byrxTw", "review_count": 130, "categories": [{"alias": "sushi", "title": "Sushi Bars"}, {"alias": "chinese", "title": "Chinese"}, {"alias": "thai", "title": "Thai"}], "rating": 3.0, "coordinates": {"latitude": 41.86914, "longitude": -87.6597199}, "transactions": ["pickup", "delivery"], "price": "$$", "location": {"address1": "1311 W Taylor St", "address2": "", "address3": "", "city": "Chicago", "zip_code": "60607", "country": "US", "state": "IL", "display_address": ["1311 W Taylor St", "Chicago, IL 60607"]}, "phone": "+13122268117", "display_phone": "(312) 226-8117", "distance": 4435.569333687725}, {"id": "OGGtHsXsCUHaLkyUNZVXNg", "alias": "the-dawson-chicago", "name": "The Dawson", "image_url": "https://s3-media1.fl.yelpcdn.com/bphoto/-br5fBmPXjElDMlEWUjb-w/o.jpg", "is_closed": false, "url": "https://www.yelp.com/biz/the-dawson-chicago?adjust_creative=7CK4ybIEl13vojI6byrxTw&utm_campaign=yelp_api_v3&utm_medium=api_v3_business_search&utm_source=7CK4ybIEl13vojI6byrxTw", "review_count": 972, "categories": [{"alias": "tradamerican", "title": "American (Traditional)"}, {"alias": "cocktailbars", "title": "Cocktail Bars"}, {"alias": "salad", "title": "Salad"}], "rating": 4.0, "coordinates": {"latitude": 41.8913174932487, "longitude": -87.6471944883606}, "transactions": ["pickup", "delivery"], "price": "$$$", "location": {"address1": "730 W Grand Ave", "address2": null, "address3": "", "city": "Chicago", "zip_code": "60654", "country": "US", "state": "IL", "display_address": ["730 W Grand Ave", "Chicago, IL 60654"]}, "phone": "+13122438955", "display_phone": "(312) 243-8955", "distance": 3553.9131425737123}, {"id": "NzTK1ZgqdzzOCbgxXWtvOg", "alias": "gyu-kaku-japanese-bbq-chicago-3", "name": "Gyu-Kaku Japanese BBQ", "image_url": "https://s3-media2.fl.yelpcdn.com/bphoto/9xzK9zxO7mWPEM1-IjPBaQ/o.jpg", "is_closed": false, "url": "https://www.yelp.com/biz/gyu-kaku-japanese-bbq-chicago-3?adjust_creative=7CK4ybIEl13vojI6byrxTw&utm_campaign=yelp_api_v3&utm_medium=api_v3_business_search&utm_source=7CK4ybIEl13vojI6byrxTw", "review_count": 463, "categories": [{"alias": "japanese", "title": "Japanese"}, {"alias": "bbq", "title": "Barbeque"}, {"alias": "asianfusion", "title": "Asian Fusion"}], "rating": 4.0, "coordinates": {"latitude": 41.884454, "longitude": -87.661355}, "transactions": ["pickup", "delivery"], "price": "$$", "location": {"address1": "1364 W Randolph St", "address2": null, "address3": "", "city": "Chicago", "zip_code": "60607", "country": "US", "state": "IL", "display_address": ["1364 W Randolph St", "Chicago, IL 60607"]}, "phone": "+13129822840", "display_phone": "(312) 982-2840", "distance": 2994.5413939468012}, {"id": "IS8V9ivSWrmTm8wU-QS0Jg", "alias": "market-creations-chicago-14", "name": "Market Creations", "image_url": "https://s3-media2.fl.yelpcdn.com/bphoto/rKbsVtLtfc94s0hZ9l3dQw/o.jpg", "is_closed": false, "url": "https://www.yelp.com/biz/market-creations-chicago-14?adjust_creative=7CK4ybIEl13vojI6byrxTw&utm_campaign=yelp_api_v3&utm_medium=api_v3_business_search&utm_source=7CK4ybIEl13vojI6byrxTw", "review_count": 101, "categories": [{"alias": "buffets", "title": "Buffets"}, {"alias": "sushi", "title": "Sushi Bars"}, {"alias": "breakfast_brunch", "title": "Breakfast & Brunch"}], "rating": 4.0, "coordinates": {"latitude": 41.87882, "longitude": -87.635956}, "transactions": [], "price": "$", "location": {"address1": "233 S Wacker Dr", "address2": "Fl 2", "address3": "Willis Tower", "city": "Chicago", "zip_code": "60606", "country": "US", "state": "IL", "display_address": ["233 S Wacker Dr", "Fl 2", "Willis Tower", "Chicago, IL 60606"]}, "phone": "+13123743473", "display_phone": "(312) 374-3473", "distance": 5031.80490252595}, {"id": "-kDoi6uhaByl7M1qAdp5oA", "alias": "shine-restaurant-chicago", "name": "Shine Restaurant", "image_url": "https://s3-media3.fl.yelpcdn.com/bphoto/WHUT7bJOybV6fhhZS1m4IA/o.jpg", "is_closed": false, "url": "https://www.yelp.com/biz/shine-restaurant-chicago?adjust_creative=7CK4ybIEl13vojI6byrxTw&utm_campaign=yelp_api_v3&utm_medium=api_v3_business_search&utm_source=7CK4ybIEl13vojI6byrxTw", "review_count": 385, "categories": [{"alias": "sushi", "title": "Sushi Bars"}, {"alias": "asianfusion", "title": "Asian Fusion"}], "rating": 3.5, "coordinates": {"latitude": 41.922011, "longitude": -87.648394}, "transactions": ["pickup", "delivery"], "price": "$$", "location": {"address1": "756 W Webster Ave", "address2": "", "address3": "", "city": "Chicago", "zip_code": "60614", "country": "US", "state": "IL", "display_address": ["756 W Webster Ave", "Chicago, IL 60614"]}, "phone": "+17732960101", "display_phone": "(773) 296-0101", "distance": 3782.1521312771747}, {"id": "jm9bpojNhuS1Pea_rSDz9Q", "alias": "buns-and-bao-chicago", "name": "Buns & Bao", "image_url": "https://s3-media1.fl.yelpcdn.com/bphoto/BKiB5sXaKn4AhrZEV1mXgA/o.jpg", "is_closed": false, "url": "https://www.yelp.com/biz/buns-and-bao-chicago?adjust_creative=7CK4ybIEl13vojI6byrxTw&utm_campaign=yelp_api_v3&utm_medium=api_v3_business_search&utm_source=7CK4ybIEl13vojI6byrxTw", "review_count": 1, "categories": [{"alias": "fooddeliveryservices", "title": "Food Delivery Services"}, {"alias": "burgers", "title": "Burgers"}, {"alias": "chicken_wings", "title": "Chicken Wings"}], "rating": 1.0, "coordinates": {"latitude": 41.88388, "longitude": -87.70583}, "transactions": [], "location": {"address1": "135 N Kedzie Ave", "address2": null, "address3": null, "city": "Chicago", "zip_code": "60612", "country": "US", "state": "IL", "display_address": ["135 N Kedzie Ave", "Chicago, IL 60612"]}, "phone": "+18779897333", "display_phone": "(877) 989-7333", "distance": 2670.1976870455264}, {"id": "G72-HHDun9xx4lxejF8NEw", "alias": "mr-dumpling-chicago-2", "name": "Mr Dumpling", "image_url": "https://s3-media2.fl.yelpcdn.com/bphoto/0kcwdp8-NWFQjHX1115cvw/o.jpg", "is_closed": false, "url": "https://www.yelp.com/biz/mr-dumpling-chicago-2?adjust_creative=7CK4ybIEl13vojI6byrxTw&utm_campaign=yelp_api_v3&utm_medium=api_v3_business_search&utm_source=7CK4ybIEl13vojI6byrxTw", "review_count": 72, "categories": [{"alias": "chinese", "title": "Chinese"}], "rating": 4.0, "coordinates": {"latitude": 41.927788, "longitude": -87.641424}, "transactions": ["delivery", "pickup"], "location": {"address1": "2485 N Clark St", "address2": null, "address3": "", "city": "Chicago", "zip_code": "60614", "country": "US", "state": "IL", "display_address": ["2485 N Clark St", "Chicago, IL 60614"]}, "phone": "+17733601864", "display_phone": "(773) 360-1864", "distance": 4633.149032658947}, {"id": "forjLZnWO4KyRWH4y1W8KA", "alias": "ukai-japanese-restaurant-chicago-2", "name": "Ukai Japanese Restaurant", "image_url": "https://s3-media2.fl.yelpcdn.com/bphoto/8nUDRA-EjykuIIx-l8D_pw/o.jpg", "is_closed": false, "url": "https://www.yelp.com/biz/ukai-japanese-restaurant-chicago-2?adjust_creative=7CK4ybIEl13vojI6byrxTw&utm_campaign=yelp_api_v3&utm_medium=api_v3_business_search&utm_source=7CK4ybIEl13vojI6byrxTw", "review_count": 423, "categories": [{"alias": "japanese", "title": "Japanese"}, {"alias": "sushi", "title": "Sushi Bars"}], "rating": 4.0, "coordinates": {"latitude": 41.9396951, "longitude": -87.6561638}, "transactions": ["delivery", "restaurant_reservation", "pickup"], "price": "$$", "location": {"address1": "1059 W Belmont Ave", "address2": "", "address3": "", "city": "Chicago", "zip_code": "60657", "country": "US", "state": "IL", "display_address": ["1059 W Belmont Ave", "Chicago, IL 60657"]}, "phone": "+17738689900", "display_phone": "(773) 868-9900", "distance": 4743.154180829133}, {"id": "KmNAA86uPEVpiM291g2o3w", "alias": "rise-sushi-and-sake-lounge-chicago", "name": "Rise Sushi & Sake Lounge", "image_url": "https://s3-media2.fl.yelpcdn.com/bphoto/dc5QOfCVVcfopY43GS2DoA/o.jpg", "is_closed": false, "url": "https://www.yelp.com/biz/rise-sushi-and-sake-lounge-chicago?adjust_creative=7CK4ybIEl13vojI6byrxTw&utm_campaign=yelp_api_v3&utm_medium=api_v3_business_search&utm_source=7CK4ybIEl13vojI6byrxTw", "review_count": 436, "categories": [{"alias": "japanese", "title": "Japanese"}, {"alias": "sushi", "title": "Sushi Bars"}, {"alias": "asianfusion", "title": "Asian Fusion"}], "rating": 3.5, "coordinates": {"latitude": 41.922011, "longitude": -87.648394}, "transactions": ["delivery", "pickup"], "price": "$$", "location": {"address1": "756 W Webster Ave", "address2": "", "address3": "", "city": "Chicago", "zip_code": "60657", "country": "US", "state": "IL", "display_address": ["756 W Webster Ave", "Chicago, IL 60657"]}, "phone": "+17735253535", "display_phone": "(773) 525-3535", "distance": 3782.1521312771747}, {"id": "VRjYD_vaMXx_svKuBOkw5A", "alias": "panera-bread-chicago-12", "name": "Panera Bread", "image_url": "https://s3-media2.fl.yelpcdn.com/bphoto/4ZhvY41O8HwJGHhVdU8KZg/o.jpg", "is_closed": false, "url": "https://www.yelp.com/biz/panera-bread-chicago-12?adjust_creative=7CK4ybIEl13vojI6byrxTw&utm_campaign=yelp_api_v3&utm_medium=api_v3_business_search&utm_source=7CK4ybIEl13vojI6byrxTw", "review_count": 167, "categories": [{"alias": "sandwiches", "title": "Sandwiches"}, {"alias": "salad", "title": "Salad"}, {"alias": "soup", "title": "Soup"}], "rating": 2.5, "coordinates": {"latitude": 41.92529775067194, "longitude": -87.67733757256097}, "transactions": ["delivery", "pickup"], "price": "$$", "location": {"address1": "1938 W Fullerton Avenue", "address2": "Suite C", "address3": "", "city": "Chicago", "zip_code": "60614", "country": "US", "state": "IL", "display_address": ["1938 W Fullerton Avenue", "Suite C", "Chicago, IL 60614"]}, "phone": "+17733422804", "display_phone": "(773) 342-2804", "distance": 2543.250196891162}, {"id": "tW2jfL-qMccAYZSghPBbHA", "alias": "the-art-of-pizza-chicago", "name": "The Art of Pizza", "image_url": "https://s3-media3.fl.yelpcdn.com/bphoto/bA4qWsy-2fSUaheSRVz4ig/o.jpg", "is_closed": false, "url": "https://www.yelp.com/biz/the-art-of-pizza-chicago?adjust_creative=7CK4ybIEl13vojI6byrxTw&utm_campaign=yelp_api_v3&utm_medium=api_v3_business_search&utm_source=7CK4ybIEl13vojI6byrxTw", "review_count": 1226, "categories": [{"alias": "pizza", "title": "Pizza"}, {"alias": "italian", "title": "Italian"}, {"alias": "salad", "title": "Salad"}], "rating": 4.0, "coordinates": {"latitude": 41.9371221, "longitude": -87.6683814}, "transactions": ["delivery", "pickup"], "price": "$", "location": {"address1": "3033 N Ashland Ave", "address2": "", "address3": "", "city": "Chicago", "zip_code": "60657", "country": "US", "state": "IL", "display_address": ["3033 N Ashland Ave", "Chicago, IL 60657"]}, "phone": "+17733275600", "display_phone": "(773) 327-5600", "distance": 4046.463257938387}, {"id": "mWDZVQxJ5p6aNp7ipa6DEQ", "alias": "sumo-sushi-and-hibachi-chicago", "name": "Sumo Sushi and Hibachi", "image_url": "https://s3-media1.fl.yelpcdn.com/bphoto/6ZZOQGsU5R1LpcqiK1QsSg/o.jpg", "is_closed": false, "url": "https://www.yelp.com/biz/sumo-sushi-and-hibachi-chicago?adjust_creative=7CK4ybIEl13vojI6byrxTw&utm_campaign=yelp_api_v3&utm_medium=api_v3_business_search&utm_source=7CK4ybIEl13vojI6byrxTw", "review_count": 326, "categories": [{"alias": "sushi", "title": "Sushi Bars"}, {"alias": "japanese", "title": "Japanese"}], "rating": 4.5, "coordinates": {"latitude": 41.9359375, "longitude": -87.6444353}, "transactions": ["delivery", "pickup"], "price": "$$", "location": {"address1": "2936 N Broadway", "address2": null, "address3": null, "city": "Chicago", "zip_code": "60657", "country": "US", "state": "IL", "display_address": ["2936 N Broadway", "Chicago, IL 60657"]}, "phone": "+17734778510", "display_phone": "(773) 477-8510", "distance": 5033.132157692288}, {"id": "5N4g9tt8RCuZf0Hte94Oxw", "alias": "staropolska-restaurant-chicago-3", "name": "Staropolska Restaurant", "image_url": "https://s3-media3.fl.yelpcdn.com/bphoto/p7oPDQQrtOzHv2PZOfOvWw/o.jpg", "is_closed": false, "url": "https://www.yelp.com/biz/staropolska-restaurant-chicago-3?adjust_creative=7CK4ybIEl13vojI6byrxTw&utm_campaign=yelp_api_v3&utm_medium=api_v3_business_search&utm_source=7CK4ybIEl13vojI6byrxTw", "review_count": 543, "categories": [{"alias": "polish", "title": "Polish"}, {"alias": "desserts", "title": "Desserts"}, {"alias": "soup", "title": "Soup"}], "rating": 4.5, "coordinates": {"latitude": 41.936365, "longitude": -87.719246}, "transactions": ["delivery", "pickup"], "price": "$$", "location": {"address1": "3030 N Milwaukee Ave", "address2": null, "address3": "", "city": "Chicago", "zip_code": "60618", "country": "US", "state": "IL", "display_address": ["3030 N Milwaukee Ave", "Chicago, IL 60618"]}, "phone": "+17733420779", "display_phone": "(773) 342-0779", "distance": 4526.7365713380495}, {"id": "88YM9_0FuSNtpKLN0E4b6A", "alias": "bombay-eats-bombay-wraps-chicago-5", "name": "Bombay Eats / Bombay Wraps", "image_url": "https://s3-media3.fl.yelpcdn.com/bphoto/vPyqOaQwvkLiUNPX4wmDWg/o.jpg", "is_closed": false, "url": "https://www.yelp.com/biz/bombay-eats-bombay-wraps-chicago-5?adjust_creative=7CK4ybIEl13vojI6byrxTw&utm_campaign=yelp_api_v3&utm_medium=api_v3_business_search&utm_source=7CK4ybIEl13vojI6byrxTw", "review_count": 81, "categories": [{"alias": "indpak", "title": "Indian"}, {"alias": "vegetarian", "title": "Vegetarian"}, {"alias": "hotdogs", "title": "Fast Food"}], "rating": 4.5, "coordinates": {"latitude": 41.93914, "longitude": -87.64421}, "transactions": ["delivery", "pickup"], "price": "$", "location": {"address1": "3149 1/2 N Broadway St", "address2": null, "address3": "", "city": "Chicago", "zip_code": "60657", "country": "US", "state": "IL", "display_address": ["3149 1/2 N Broadway St", "Chicago, IL 60657"]}, "phone": "+17737998989", "display_phone": "(773) 799-8989", "distance": 5295.901169002617}, {"id": "Oxz8zBbPYFxJ54BkSieEPg", "alias": "velvet-taco-chicago-4", "name": "Velvet Taco", "image_url": "https://s3-media2.fl.yelpcdn.com/bphoto/n6tBCtld9V5nUh5uo_GX3A/o.jpg", "is_closed": false, "url": "https://www.yelp.com/biz/velvet-taco-chicago-4?adjust_creative=7CK4ybIEl13vojI6byrxTw&utm_campaign=yelp_api_v3&utm_medium=api_v3_business_search&utm_source=7CK4ybIEl13vojI6byrxTw", "review_count": 98, "categories": [{"alias": "tacos", "title": "Tacos"}, {"alias": "newamerican", "title": "American (New)"}, {"alias": "vegetarian", "title": "Vegetarian"}], "rating": 3.5, "coordinates": {"latitude": 41.92403, "longitude": -87.646576}, "transactions": ["delivery", "pickup"], "price": "$$", "location": {"address1": "2309 N Lincoln Ave", "address2": "", "address3": null, "city": "Chicago", "zip_code": "60614", "country": "US", "state": "IL", "display_address": ["2309 N Lincoln Ave", "Chicago, IL 60614"]}, "phone": "+18729998228", "display_phone": "(872) 999-8228", "distance": 4037.0462527938575}, {"id": "cK5hJNto0RnWbaI5khj79Q", "alias": "dog-haus-chicago-2", "name": "Dog Haus Ghost Kitchen", "image_url": "https://s3-media4.fl.yelpcdn.com/bphoto/mTIfFUIDrH4ZzoQJG8oBvg/o.jpg", "is_closed": false, "url": "https://www.yelp.com/biz/dog-haus-chicago-2?adjust_creative=7CK4ybIEl13vojI6byrxTw&utm_campaign=yelp_api_v3&utm_medium=api_v3_business_search&utm_source=7CK4ybIEl13vojI6byrxTw", "review_count": 9, "categories": [{"alias": "fooddeliveryservices", "title": "Food Delivery Services"}], "rating": 3.0, "coordinates": {"latitude": 41.8972452, "longitude": -87.6385914}, "transactions": ["delivery", "pickup"], "location": {"address1": "825 N Sedgwick St", "address2": null, "address3": null, "city": "Chicago", "zip_code": "60610", "country": "US", "state": "IL", "display_address": ["825 N Sedgwick St", "Chicago, IL 60610"]}, "phone": "+13127950543", "display_phone": "(312) 795-0543", "distance": 4056.180149720153}, {"id": "0KYJU8P479V1PFoM_VmL0g", "alias": "shef-chicago-2", "name": "Shef", "image_url": "https://s3-media1.fl.yelpcdn.com/bphoto/Dkw3IzY2SPTjOC2M7WZTTg/o.jpg", "is_closed": false, "url": "https://www.yelp.com/biz/shef-chicago-2?adjust_creative=7CK4ybIEl13vojI6byrxTw&utm_campaign=yelp_api_v3&utm_medium=api_v3_business_search&utm_source=7CK4ybIEl13vojI6byrxTw", "review_count": 13, "categories": [{"alias": "fooddeliveryservices", "title": "Food Delivery Services"}], "rating": 2.5, "coordinates": {"latitude": 41.94071578979492, "longitude": -87.65287017822266}, "transactions": [], "location": {"address1": "", "address2": "", "address3": null, "city": "Chicago", "zip_code": "60657", "country": "US", "state": "IL", "display_address": ["Chicago, IL 60657"]}, "phone": "+14156394535", "display_phone": "(415) 639-4535", "distance": 4953.3053254223605}, {"id": "1xusdeh8fo3xJN5Asxni9Q", "alias": "lees-garden-restaurant-chicago", "name": "Lee's Garden Restaurant", "image_url": "https://s3-media1.fl.yelpcdn.com/bphoto/GOSfdkq3LzjkScRMuvNLvQ/o.jpg", "is_closed": false, "url": "https://www.yelp.com/biz/lees-garden-restaurant-chicago?adjust_creative=7CK4ybIEl13vojI6byrxTw&utm_campaign=yelp_api_v3&utm_medium=api_v3_business_search&utm_source=7CK4ybIEl13vojI6byrxTw", "review_count": 17, "categories": [{"alias": "chinese", "title": "Chinese"}], "rating": 3.0, "coordinates": {"latitude": 41.909963, "longitude": -87.732888}, "transactions": ["delivery", "pickup"], "price": "$", "location": {"address1": "4240 W North Ave", "address2": "", "address3": "", "city": "Chicago", "zip_code": "60639", "country": "US", "state": "IL", "display_address": ["4240 W North Ave", "Chicago, IL 60639"]}, "phone": "+17733422811", "display_phone": "(773) 342-2811", "distance": 3874.9365947701895}, {"id": "h_fKxtXwqvZx2CZSt8YbmQ", "alias": "friendship-chinese-restaurant-chicago", "name": "Friendship Chinese Restaurant", "image_url": "https://s3-media3.fl.yelpcdn.com/bphoto/vb3AJGE9tpynBVOVATQKvw/o.jpg", "is_closed": false, "url": "https://www.yelp.com/biz/friendship-chinese-restaurant-chicago?adjust_creative=7CK4ybIEl13vojI6byrxTw&utm_campaign=yelp_api_v3&utm_medium=api_v3_business_search&utm_source=7CK4ybIEl13vojI6byrxTw", "review_count": 841, "categories": [{"alias": "chinese", "title": "Chinese"}, {"alias": "asianfusion", "title": "Asian Fusion"}], "rating": 3.5, "coordinates": {"latitude": 41.9324798583984, "longitude": -87.7135467529297}, "transactions": ["delivery", "pickup"], "price": "$$", "location": {"address1": "2830 N Milwaukee Ave", "address2": "", "address3": "", "city": "Chicago", "zip_code": "60618", "country": "US", "state": "IL", "display_address": ["2830 N Milwaukee Ave", "Chicago, IL 60618"]}, "phone": "+17732270970", "display_phone": "(773) 227-0970", "distance": 3904.61605723108}, {"id": "ADDjTQY6ph0Aa05sf6uP9g", "alias": "poke-pok\u00e9-chicago-6", "name": "Poke Pok\u00e9", "image_url": "https://s3-media2.fl.yelpcdn.com/bphoto/ORaB-3HcEOqSiEB7GXVNMw/o.jpg", "is_closed": false, "url": "https://www.yelp.com/biz/poke-pok%C3%A9-chicago-6?adjust_creative=7CK4ybIEl13vojI6byrxTw&utm_campaign=yelp_api_v3&utm_medium=api_v3_business_search&utm_source=7CK4ybIEl13vojI6byrxTw", "review_count": 20, "categories": [{"alias": "poke", "title": "Poke"}, {"alias": "ramen", "title": "Ramen"}, {"alias": "salad", "title": "Salad"}], "rating": 5.0, "coordinates": {"latitude": 41.88189, "longitude": -87.65454}, "transactions": ["delivery", "pickup"], "price": "$$", "location": {"address1": "1100 W Madison St", "address2": null, "address3": "", "city": "Chicago", "zip_code": "60607", "country": "US", "state": "IL", "display_address": ["1100 W Madison St", "Chicago, IL 60607"]}, "phone": "", "display_phone": "", "distance": 3597.72050234311}, {"id": "DDtElQ0VMOox12kb7V7cow", "alias": "native-foods-chicago-6", "name": "Native Foods", "image_url": "https://s3-media2.fl.yelpcdn.com/bphoto/C_YKJ4-xcWFuY2MX4i-Qtg/o.jpg", "is_closed": false, "url": "https://www.yelp.com/biz/native-foods-chicago-6?adjust_creative=7CK4ybIEl13vojI6byrxTw&utm_campaign=yelp_api_v3&utm_medium=api_v3_business_search&utm_source=7CK4ybIEl13vojI6byrxTw", "review_count": 529, "categories": [{"alias": "vegan", "title": "Vegan"}, {"alias": "newamerican", "title": "American (New)"}, {"alias": "burgers", "title": "Burgers"}], "rating": 4.0, "coordinates": {"latitude": 41.93973319100532, "longitude": -87.655069123534}, "transactions": ["delivery", "pickup"], "price": "$$", "location": {"address1": "1023 W Belmont Ave", "address2": "", "address3": "", "city": "Chicago", "zip_code": "60657", "country": "US", "state": "IL", "display_address": ["1023 W Belmont Ave", "Chicago, IL 60657"]}, "phone": "+17735494904", "display_phone": "(773) 549-4904", "distance": 4806.808986307487}, {"id": "J4DPDOKpCR7Iwo1xhZcX1g", "alias": "peking-chinese-kitchen-chicago", "name": "Peking Chinese Kitchen", "image_url": "https://s3-media2.fl.yelpcdn.com/bphoto/sLlIYu5Bf2wwYpEeAQTzYw/o.jpg", "is_closed": false, "url": "https://www.yelp.com/biz/peking-chinese-kitchen-chicago?adjust_creative=7CK4ybIEl13vojI6byrxTw&utm_campaign=yelp_api_v3&utm_medium=api_v3_business_search&utm_source=7CK4ybIEl13vojI6byrxTw", "review_count": 190, "categories": [{"alias": "chinese", "title": "Chinese"}], "rating": 3.0, "coordinates": {"latitude": 41.93977, "longitude": -87.64892}, "transactions": ["delivery", "pickup"], "price": "$", "location": {"address1": "3167 N Halsted St", "address2": "", "address3": "", "city": "Chicago", "zip_code": "60657", "country": "US", "state": "IL", "display_address": ["3167 N Halsted St", "Chicago, IL 60657"]}, "phone": "+17732815435", "display_phone": "(773) 281-5435", "distance": 5098.29247575873}, {"id": "_75c9malpyeCvhyJwFKDsA", "alias": "uncooked-chicago-4", "name": "uncooked", "image_url": "https://s3-media1.fl.yelpcdn.com/bphoto/-JcVNCGvlUDDiEVuKqIv_g/o.jpg", "is_closed": false, "url": "https://www.yelp.com/biz/uncooked-chicago-4?adjust_creative=7CK4ybIEl13vojI6byrxTw&utm_campaign=yelp_api_v3&utm_medium=api_v3_business_search&utm_source=7CK4ybIEl13vojI6byrxTw", "review_count": 68, "categories": [{"alias": "vegan", "title": "Vegan"}, {"alias": "coffee", "title": "Coffee & Tea"}, {"alias": "juicebars", "title": "Juice Bars & Smoothies"}], "rating": 5.0, "coordinates": {"latitude": 41.88585, "longitude": -87.65345}, "transactions": ["delivery", "pickup"], "price": "$$", "location": {"address1": "210 N Carpenter St", "address2": "Ste 140", "address3": "", "city": "Chicago", "zip_code": "60607", "country": "US", "state": "IL", "display_address": ["210 N Carpenter St", "Ste 140", "Chicago, IL 60607"]}, "phone": "+13123155552", "display_phone": "(312) 315-5552", "distance": 3393.147444910344}, {"id": "nv_WBmoZ5wTjE2bH_GxkkQ", "alias": "hermosa-chicago", "name": "Hermosa", "image_url": "https://s3-media2.fl.yelpcdn.com/bphoto/o1p4ZGO3lyToxe_1S6jNGg/o.jpg", "is_closed": false, "url": "https://www.yelp.com/biz/hermosa-chicago?adjust_creative=7CK4ybIEl13vojI6byrxTw&utm_campaign=yelp_api_v3&utm_medium=api_v3_business_search&utm_source=7CK4ybIEl13vojI6byrxTw", "review_count": 66, "categories": [{"alias": "burgers", "title": "Burgers"}, {"alias": "sandwiches", "title": "Sandwiches"}, {"alias": "salad", "title": "Salad"}], "rating": 4.5, "coordinates": {"latitude": 41.917308807373, "longitude": -87.7361297607422}, "transactions": ["delivery", "pickup"], "price": "$", "location": {"address1": "4356 W Armitage", "address2": null, "address3": "", "city": "Chicago", "zip_code": "60639", "country": "US", "state": "IL", "display_address": ["4356 W Armitage", "Chicago, IL 60639"]}, "phone": "+18728024920", "display_phone": "(872) 802-4920", "distance": 4351.609700439176}, {"id": "vOEqVTBwUek7-jKrN1Th8g", "alias": "chicago-bagel-authority-chicago-3", "name": "Chicago Bagel Authority", "image_url": "https://s3-media1.fl.yelpcdn.com/bphoto/yL09-qI8p4lsekyDMmfT7Q/o.jpg", "is_closed": false, "url": "https://www.yelp.com/biz/chicago-bagel-authority-chicago-3?adjust_creative=7CK4ybIEl13vojI6byrxTw&utm_campaign=yelp_api_v3&utm_medium=api_v3_business_search&utm_source=7CK4ybIEl13vojI6byrxTw", "review_count": 745, "categories": [{"alias": "bagels", "title": "Bagels"}, {"alias": "salad", "title": "Salad"}, {"alias": "breakfast_brunch", "title": "Breakfast & Brunch"}], "rating": 4.0, "coordinates": {"latitude": 41.9178624, "longitude": -87.6529861}, "transactions": ["delivery", "pickup"], "price": "$", "location": {"address1": "953 W Armitage Ave", "address2": "", "address3": "", "city": "Chicago", "zip_code": "60614", "country": "US", "state": "IL", "display_address": ["953 W Armitage Ave", "Chicago, IL 60614"]}, "phone": "+17732489606", "display_phone": "(773) 248-9606", "distance": 3223.446136953682}, {"id": "YbRuNrynwjHTtC_-4h_R9Q", "alias": "noodles-and-company-chicago-3", "name": "Noodles & Company", "image_url": "https://s3-media4.fl.yelpcdn.com/bphoto/jV1i_BpA5ctB9ThpXv_1dA/o.jpg", "is_closed": false, "url": "https://www.yelp.com/biz/noodles-and-company-chicago-3?adjust_creative=7CK4ybIEl13vojI6byrxTw&utm_campaign=yelp_api_v3&utm_medium=api_v3_business_search&utm_source=7CK4ybIEl13vojI6byrxTw", "review_count": 59, "categories": [{"alias": "noodles", "title": "Noodles"}, {"alias": "salad", "title": "Salad"}, {"alias": "pastashops", "title": "Pasta Shops"}], "rating": 3.5, "coordinates": {"latitude": 41.917685, "longitude": -87.66}, "transactions": ["delivery", "pickup"], "price": "$", "location": {"address1": "2000 N Clybourn Ave", "address2": "", "address3": "", "city": "Chicago", "zip_code": "60614", "country": "US", "state": "IL", "display_address": ["2000 N Clybourn Ave", "Chicago, IL 60614"]}, "phone": "+17738680990", "display_phone": "(773) 868-0990", "distance": 2722.32124954605}, {"id": "vQIbpMiHl9tGI32afSF_QA", "alias": "pockets-chicago-30", "name": "Pockets", "image_url": "https://s3-media1.fl.yelpcdn.com/bphoto/1v5zFpIQbfBXUkmcVpLSBg/o.jpg", "is_closed": false, "url": "https://www.yelp.com/biz/pockets-chicago-30?adjust_creative=7CK4ybIEl13vojI6byrxTw&utm_campaign=yelp_api_v3&utm_medium=api_v3_business_search&utm_source=7CK4ybIEl13vojI6byrxTw", "review_count": 67, "categories": [{"alias": "sandwiches", "title": "Sandwiches"}, {"alias": "salad", "title": "Salad"}], "rating": 3.5, "coordinates": {"latitude": 41.881528, "longitude": -87.6524923}, "transactions": ["delivery", "pickup"], "price": "$", "location": {"address1": "1009 W Madison St", "address2": "", "address3": "", "city": "Chicago", "zip_code": "60607", "country": "US", "state": "IL", "display_address": ["1009 W Madison St", "Chicago, IL 60607"]}, "phone": "+13127380080", "display_phone": "(312) 738-0080", "distance": 3747.409964732579}, {"id": "e6VghMCxGeGOu8B7ZZJ2Vw", "alias": "panda-express-chicago-39", "name": "Panda Express", "image_url": "https://s3-media3.fl.yelpcdn.com/bphoto/DnPF0CspSOcKNFcREZl0qw/o.jpg", "is_closed": false, "url": "https://www.yelp.com/biz/panda-express-chicago-39?adjust_creative=7CK4ybIEl13vojI6byrxTw&utm_campaign=yelp_api_v3&utm_medium=api_v3_business_search&utm_source=7CK4ybIEl13vojI6byrxTw", "review_count": 25, "categories": [{"alias": "chinese", "title": "Chinese"}, {"alias": "hotdogs", "title": "Fast Food"}], "rating": 3.0, "coordinates": {"latitude": 41.88235, "longitude": -87.64047}, "transactions": ["delivery", "pickup"], "price": "$", "location": {"address1": "500 West Madison Street", "address2": "1st FLOOR", "address3": "", "city": "Chicago", "zip_code": "60661", "country": "US", "state": "IL", "display_address": ["500 West Madison Street", "1st FLOOR", "Chicago, IL 60661"]}, "phone": "+13128769667", "display_phone": "(312) 876-9667", "distance": 4514.137556656649}, {"id": "E2F4_VcznW70W9xcOuMTOw", "alias": "potbelly-sandwich-shop-chicago-64", "name": "Potbelly Sandwich Shop", "image_url": "https://s3-media4.fl.yelpcdn.com/bphoto/q1yz3uoWWVT1BQJrwuSd1g/o.jpg", "is_closed": false, "url": "https://www.yelp.com/biz/potbelly-sandwich-shop-chicago-64?adjust_creative=7CK4ybIEl13vojI6byrxTw&utm_campaign=yelp_api_v3&utm_medium=api_v3_business_search&utm_source=7CK4ybIEl13vojI6byrxTw", "review_count": 67, "categories": [{"alias": "sandwiches", "title": "Sandwiches"}, {"alias": "hotdogs", "title": "Fast Food"}, {"alias": "salad", "title": "Salad"}], "rating": 3.0, "coordinates": {"latitude": 41.9323034276677, "longitude": -87.6536719829996}, "transactions": ["delivery", "pickup"], "price": "$", "location": {"address1": "959 W Diversey Pkwy", "address2": "", "address3": "", "city": "Chicago", "zip_code": "60614", "country": "US", "state": "IL", "display_address": ["959 W Diversey Pkwy", "Chicago, IL 60614"]}, "phone": "+17732482018", "display_phone": "(773) 248-2018", "distance": 4214.593202090454}, {"id": "i4dZiuVEzWZPTIOZWIMG7w", "alias": "saigon-sisters-chicago", "name": "Saigon Sisters", "image_url": "https://s3-media1.fl.yelpcdn.com/bphoto/cvUe3qzD29Mk8tTay5IObQ/o.jpg", "is_closed": false, "url": "https://www.yelp.com/biz/saigon-sisters-chicago?adjust_creative=7CK4ybIEl13vojI6byrxTw&utm_campaign=yelp_api_v3&utm_medium=api_v3_business_search&utm_source=7CK4ybIEl13vojI6byrxTw", "review_count": 188, "categories": [{"alias": "vietnamese", "title": "Vietnamese"}, {"alias": "vegan", "title": "Vegan"}, {"alias": "sandwiches", "title": "Sandwiches"}], "rating": 3.0, "coordinates": {"latitude": 41.8839476, "longitude": -87.6410751}, "transactions": ["delivery", "pickup"], "price": "$", "location": {"address1": "131 N Clinton St", "address2": "", "address3": "", "city": "Chicago", "zip_code": "60661", "country": "US", "state": "IL", "display_address": ["131 N Clinton St", "Chicago, IL 60661"]}, "phone": "+13124960094", "display_phone": "(312) 496-0094", "distance": 4376.052920970554}, {"id": "lLicZWKmiquAfrUWXOFq6Q", "alias": "just-salad-chicago-3", "name": "Just Salad", "image_url": "https://s3-media3.fl.yelpcdn.com/bphoto/4pEEEbhSkHErPNyOY4TT0A/o.jpg", "is_closed": false, "url": "https://www.yelp.com/biz/just-salad-chicago-3?adjust_creative=7CK4ybIEl13vojI6byrxTw&utm_campaign=yelp_api_v3&utm_medium=api_v3_business_search&utm_source=7CK4ybIEl13vojI6byrxTw", "review_count": 68, "categories": [{"alias": "salad", "title": "Salad"}, {"alias": "juicebars", "title": "Juice Bars & Smoothies"}, {"alias": "wraps", "title": "Wraps"}], "rating": 3.0, "coordinates": {"latitude": 41.88165, "longitude": -87.6388749}, "transactions": ["delivery", "pickup"], "price": "$", "location": {"address1": "10 S Riverside Plz", "address2": null, "address3": "", "city": "Chicago", "zip_code": "60606", "country": "US", "state": "IL", "display_address": ["10 S Riverside Plz", "Chicago, IL 60606"]}, "phone": "+12122441111", "display_phone": "(212) 244-1111", "distance": 4665.9024784137855}, {"id": "M8B3YX-UCTqVArqeNSwdHA", "alias": "china-night-cafe-chicago", "name": "China Night Cafe", "image_url": "https://s3-media1.fl.yelpcdn.com/bphoto/TPTu3uxfU_fevbCjeGCnTw/o.jpg", "is_closed": false, "url": "https://www.yelp.com/biz/china-night-cafe-chicago?adjust_creative=7CK4ybIEl13vojI6byrxTw&utm_campaign=yelp_api_v3&utm_medium=api_v3_business_search&utm_source=7CK4ybIEl13vojI6byrxTw", "review_count": 61, "categories": [{"alias": "chinese", "title": "Chinese"}], "rating": 3.5, "coordinates": {"latitude": 41.86967, "longitude": -87.65586}, "transactions": ["delivery", "pickup"], "price": "$", "location": {"address1": "1140 W Taylor St", "address2": "", "address3": "", "city": "Chicago", "zip_code": "60607", "country": "US", "state": "IL", "display_address": ["1140 W Taylor St", "Chicago, IL 60607"]}, "phone": "+13124217130", "display_phone": "(312) 421-7130", "distance": 4560.3457843137285}, {"id": "pqO59Dor8BZGJsDvlJshrQ", "alias": "new-tokyo-chicago", "name": "New Tokyo", "image_url": "https://s3-media1.fl.yelpcdn.com/bphoto/P7i3EMrqQG9ZKwui41fFLA/o.jpg", "is_closed": false, "url": "https://www.yelp.com/biz/new-tokyo-chicago?adjust_creative=7CK4ybIEl13vojI6byrxTw&utm_campaign=yelp_api_v3&utm_medium=api_v3_business_search&utm_source=7CK4ybIEl13vojI6byrxTw", "review_count": 221, "categories": [{"alias": "japanese", "title": "Japanese"}, {"alias": "sushi", "title": "Sushi Bars"}], "rating": 3.5, "coordinates": {"latitude": 41.93895, "longitude": -87.64414}, "transactions": ["delivery", "pickup"], "price": "$$", "location": {"address1": "3139 N Broadway St", "address2": "", "address3": "", "city": "Chicago", "zip_code": "60657", "country": "US", "state": "IL", "display_address": ["3139 N Broadway St", "Chicago, IL 60657"]}, "phone": "+17732481193", "display_phone": "(773) 248-1193", "distance": 5279.559179889276}, {"id": "Brl55B0WFo3N7YzprXrvSw", "alias": "panera-bread-chicago-7", "name": "Panera Bread", "image_url": "https://s3-media2.fl.yelpcdn.com/bphoto/gjC5iweIZYYeB7fge6jybw/o.jpg", "is_closed": false, "url": "https://www.yelp.com/biz/panera-bread-chicago-7?adjust_creative=7CK4ybIEl13vojI6byrxTw&utm_campaign=yelp_api_v3&utm_medium=api_v3_business_search&utm_source=7CK4ybIEl13vojI6byrxTw", "review_count": 127, "categories": [{"alias": "sandwiches", "title": "Sandwiches"}, {"alias": "salad", "title": "Salad"}, {"alias": "soup", "title": "Soup"}], "rating": 3.0, "coordinates": {"latitude": 41.86877712736723, "longitude": -87.63870917309583}, "transactions": ["delivery", "pickup"], "price": "$$", "location": {"address1": "1101 South Canal Street", "address2": "Ste 16", "address3": "", "city": "Chicago", "zip_code": "60607", "country": "US", "state": "IL", "display_address": ["1101 South Canal Street", "Ste 16", "Chicago, IL 60607"]}, "phone": "+13127861761", "display_phone": "(312) 786-1761", "distance": 5553.555466516226}, {"id": "kr2ipJbSnYUYI0fdwQizaw", "alias": "soupbox-chicago-4", "name": "Soupbox", "image_url": "https://s3-media2.fl.yelpcdn.com/bphoto/su3_u-EFi2XlXZlTCxOjgw/o.jpg", "is_closed": false, "url": "https://www.yelp.com/biz/soupbox-chicago-4?adjust_creative=7CK4ybIEl13vojI6byrxTw&utm_campaign=yelp_api_v3&utm_medium=api_v3_business_search&utm_source=7CK4ybIEl13vojI6byrxTw", "review_count": 610, "categories": [{"alias": "soup", "title": "Soup"}, {"alias": "sandwiches", "title": "Sandwiches"}], "rating": 3.5, "coordinates": {"latitude": 41.936229, "longitude": -87.644115}, "transactions": ["delivery", "pickup"], "price": "$$", "location": {"address1": "2943 N Broadway St", "address2": "", "address3": "", "city": "Chicago", "zip_code": "60657", "country": "US", "state": "IL", "display_address": ["2943 N Broadway St", "Chicago, IL 60657"]}, "phone": "+17739359800", "display_phone": "(773) 935-9800", "distance": 5070.702716741767}, {"id": "bnIJC1iAHGq0VBWCjIvR7g", "alias": "panera-bread-chicago-14", "name": "Panera Bread", "image_url": "https://s3-media1.fl.yelpcdn.com/bphoto/ZoPWLPLnCyPSNUKlmWHSHQ/o.jpg", "is_closed": false, "url": "https://www.yelp.com/biz/panera-bread-chicago-14?adjust_creative=7CK4ybIEl13vojI6byrxTw&utm_campaign=yelp_api_v3&utm_medium=api_v3_business_search&utm_source=7CK4ybIEl13vojI6byrxTw", "review_count": 92, "categories": [{"alias": "sandwiches", "title": "Sandwiches"}, {"alias": "salad", "title": "Salad"}, {"alias": "soup", "title": "Soup"}], "rating": 3.0, "coordinates": {"latitude": 41.90404, "longitude": -87.638714}, "transactions": ["delivery", "pickup"], "price": "$", "location": {"address1": "400 West Division Street", "address2": "", "address3": "", "city": "Chicago", "zip_code": "60610", "country": "US", "state": "IL", "display_address": ["400 West Division Street", "Chicago, IL 60610"]}, "phone": "+13123372304", "display_phone": "(312) 337-2304", "distance": 3985.111724001938}, {"id": "ENCTUayR_cw6Q6ueH091bQ", "alias": "noodles-and-company-chicago-13", "name": "Noodles & Company", "image_url": "https://s3-media2.fl.yelpcdn.com/bphoto/svy3P4I7_6VuepHvEHj3YQ/o.jpg", "is_closed": false, "url": "https://www.yelp.com/biz/noodles-and-company-chicago-13?adjust_creative=7CK4ybIEl13vojI6byrxTw&utm_campaign=yelp_api_v3&utm_medium=api_v3_business_search&utm_source=7CK4ybIEl13vojI6byrxTw", "review_count": 75, "categories": [{"alias": "noodles", "title": "Noodles"}, {"alias": "salad", "title": "Salad"}, {"alias": "pastashops", "title": "Pasta Shops"}], "rating": 2.5, "coordinates": {"latitude": 41.8689925782538, "longitude": -87.6396426558495}, "transactions": ["delivery", "pickup"], "price": "$", "location": {"address1": "1022 S Canal St", "address2": "", "address3": "", "city": "Chicago", "zip_code": "60607", "country": "US", "state": "IL", "display_address": ["1022 S Canal St", "Chicago, IL 60607"]}, "phone": "+13125881982", "display_phone": "(312) 588-1982", "distance": 5481.525839398638}]